[
  {
    "name": "London",
    "lat": 51.5074,
    "lng": -0.1278
  },
  {
    "name": "Berlin",
    "lat": 52.52,
    "lng": 13.405
  },
  {
    "name": "Madrid",
    "lat": 40.4168,
    "lng": -3.7038
  },
  {
    "name": "Rome",
    "lat": 41.9028,
    "lng": 12.4964
  },
  {
    "name": "Paris",
    "lat": 48.8566,
    "lng": 2.3522
  },
  {
    "name": "Bucharest",
    "lat": 44.4268,
    "lng": 26.1025
  },
  {
    "name": "Vienna",
    "lat": 48.2082,
    "lng": 16.3738
  },
  {
    "name": "Hamburg",
    "lat": 53.5511,
    "lng": 9.9937
  },
  {
    "name": "Warsaw",
    "lat": 52.2297,
    "lng": 21.0122
  },
  {
    "name": "Budapest",
    "lat": 47.4979,
    "lng": 19.0402
  },
  {
    "name": "Barcelona",
    "lat": 41.3851,
    "lng": 2.1734
  },
  {
    "name": "Munich",
    "lat": 48.1351,
    "lng": 11.582
  },
  {
    "name": "Milan",
    "lat": 45.4642,
    "lng": 9.19
  },
  {
    "name": "Prague",
    "lat": 50.0755,
    "lng": 14.4378
  },
  {
    "name": "Sofia",
    "lat": 42.6977,
    "lng": 23.3219
  },
  {
    "name": "Brussels",
    "lat": 50.8503,
    "lng": 4.3517
  },
  {
    "name": "Birmingham",
    "lat": 52.4862,
    "lng": -1.8904
  },
  {
    "name": "Cologne",
    "lat": 50.9375,
    "lng": 6.9603
  },
  {
    "name": "Naples",
    "lat": 40.8518,
    "lng": 14.2681
  },
  {
    "name": "Stockholm",
    "lat": 59.3293,
    "lng": 18.0686
  },
  {
    "name": "Turin",
    "lat": 45.0703,
    "lng": 7.6869
  },
  {
    "name": "Marseille",
    "lat": 43.2965,
    "lng": 5.3698
  },
  {
    "name": "Amsterdam",
    "lat": 52.3676,
    "lng": 4.9041
  },
  {
    "name": "Zagreb",
    "lat": 45.815,
    "lng": 15.9819
  },
  {
    "name": "Valencia",
    "lat": 39.4699,
    "lng": -0.3763
  },
  {
    "name": "Krakow",
    "lat": 50.0647,
    "lng": 19.945
  },
  {
    "name": "Frankfurt",
    "lat": 50.1109,
    "lng": 8.6821
  },
  {
    "name": "Oslo",
    "lat": 59.9139,
    "lng": 10.7522
  },
  {
    "name": "Seville",
    "lat": 37.3891,
    "lng": -5.9845
  },
  {
    "name": "Zaragoza",
    "lat": 41.6488,
    "lng": -0.8891
  },
  {
    "name": "Athens",
    "lat": 37.9838,
    "lng": 23.7275
  },
  {
    "name": "Palermo",
    "lat": 38.1157,
    "lng": 13.3615
  },
  {
    "name": "Helsinki",
    "lat": 60.1695,
    "lng": 24.9354
  },
  {
    "name": "Rotterdam",
    "lat": 51.9225,
    "lng": 4.4792
  },
  {
    "name": "Stuttgart",
    "lat": 48.7758,
    "lng": 9.1829
  },
  {
    "name": "Riga",
    "lat": 56.9496,
    "lng": 24.1052
  },
  {
    "name": "Dusseldorf",
    "lat": 51.2277,
    "lng": 6.7735
  },
  {
    "name": "Copenhagen",
    "lat": 55.6761,
    "lng": 12.5683
  },
  {
    "name": "Vilnius",
    "lat": 54.6872,
    "lng": 25.2797
  },
  {
    "name": "Leipzig",
    "lat": 51.3397,
    "lng": 12.3731
  },
  {
    "name": "Dortmund",
    "lat": 51.5136,
    "lng": 7.4653
  },
  {
    "name": "Essen",
    "lat": 51.4556,
    "lng": 7.0116
  },
  {
    "name": "Gothenburg",
    "lat": 57.7089,
    "lng": 11.9746
  },
  {
    "name": "Genoa",
    "lat": 44.4056,
    "lng": 8.9463
  },
  {
    "name": "Malaga",
    "lat": 36.7213,
    "lng": -4.4214
  },
  {
    "name": "Bremen",
    "lat": 53.0793,
    "lng": 8.8017
  },
  {
    "name": "Lisbon",
    "lat": 38.7223,
    "lng": -9.1393
  },
  {
    "name": "Vilnius",
    "lat": 54.6872,
    "lng": 25.2797
  },
  {
    "name": "Dublin",
    "lat": 53.3498,
    "lng": -6.2603
  },
  {
    "name": "Dresden",
    "lat": 51.0504,
    "lng": 13.7373
  },
  {
    "name": "Nuremberg",
    "lat": 49.4521,
    "lng": 11.0767
  },
  {
    "name": "Antwerp",
    "lat": 51.2194,
    "lng": 4.4025
  },
  {
    "name": "Lyon",
    "lat": 45.764,
    "lng": 4.8357
  },
  {
    "name": "Toulouse",
    "lat": 43.6047,
    "lng": 1.4442
  },
  {
    "name": "Bratislava",
    "lat": 48.1486,
    "lng": 17.1077
  },
  {
    "name": "Gdansk",
    "lat": 54.352,
    "lng": 18.6466
  },
  {
    "name": "Murcia",
    "lat": 37.9922,
    "lng": -1.1307
  },
  {
    "name": "Tallinn",
    "lat": 59.437,
    "lng": 24.7536
  },
  {
    "name": "Palma",
    "lat": 39.5696,
    "lng": 2.6502
  },
  {
    "name": "Bologna",
    "lat": 44.4949,
    "lng": 11.3426
  },
  {
    "name": "Brno",
    "lat": 49.1951,
    "lng": 16.6068
  },
  {
    "name": "Florence",
    "lat": 43.7696,
    "lng": 11.2558
  },
  {
    "name": "The Hague",
    "lat": 52.0705,
    "lng": 4.3007
  },
  {
    "name": "Nice",
    "lat": 43.7102,
    "lng": 7.262
  },
  {
    "name": "Bari",
    "lat": 41.1171,
    "lng": 16.8719
  },
  {
    "name": "Bilbao",
    "lat": 43.263,
    "lng": -2.935
  },
  {
    "name": "Thessaloniki",
    "lat": 40.6401,
    "lng": 22.9444
  },
  {
    "name": "Cardiff",
    "lat": 51.4816,
    "lng": -3.1791
  },
  {
    "name": "Alicante",
    "lat": 38.3452,
    "lng": -0.481
  },
  {
    "name": "Belfast",
    "lat": 54.5973,
    "lng": -5.9301
  },
  {
    "name": "Ljubljana",
    "lat": 46.0569,
    "lng": 14.5058
  },
  {
    "name": "Utrecht",
    "lat": 52.0907,
    "lng": 5.1214
  },
  {
    "name": "Bordeaux",
    "lat": 44.8378,
    "lng": -0.5792
  },
  {
    "name": "Porto",
    "lat": 41.1579,
    "lng": -8.6291
  },
  {
    "name": "Edinburgh",
    "lat": 55.9533,
    "lng": -3.1883
  },
  {
    "name": "Glasgow",
    "lat": 55.8642,
    "lng": -4.2518
  },
  {
    "name": "Manchester",
    "lat": 53.4808,
    "lng": -2.2426
  },
  {
    "name": "Sheffield",
    "lat": 53.3811,
    "lng": -1.4701
  },
  {
    "name": "Liverpool",
    "lat": 53.4084,
    "lng": -2.9916
  },
  {
    "name": "Bristol",
    "lat": 51.4545,
    "lng": -2.5879
  },
  {
    "name": "Leicester",
    "lat": 52.6369,
    "lng": -1.1398
  },
  {
    "name": "Verona",
    "lat": 45.4384,
    "lng": 10.9916
  },
  {
    "name": "Venice",
    "lat": 45.4408,
    "lng": 12.3155
  },
  {
    "name": "Catania",
    "lat": 37.5079,
    "lng": 15.083
  },
  {
    "name": "Ghent",
    "lat": 51.0543,
    "lng": 3.7174
  },
  {
    "name": "Charleroi",
    "lat": 50.4108,
    "lng": 4.4446
  },
  {
    "name": "Liege",
    "lat": 50.6326,
    "lng": 5.5797
  },
  {
    "name": "Plovdiv",
    "lat": 42.1354,
    "lng": 24.7453
  },
  {
    "name": "Varna",
    "lat": 43.2141,
    "lng": 27.9147
  },
  {
    "name": "Split",
    "lat": 43.5081,
    "lng": 16.4402
  },
  {
    "name": "Limassol",
    "lat": 34.6786,
    "lng": 33.0413
  },
  {
    "name": "Aarhus",
    "lat": 56.1567,
    "lng": 10.2108
  },
  {
    "name": "Turku",
    "lat": 60.4518,
    "lng": 22.2666
  },
  {
    "name": "Nantes",
    "lat": 47.2184,
    "lng": -1.5536
  },
  {
    "name": "Strasbourg",
    "lat": 48.5734,
    "lng": 7.7521
  },
  {
    "name": "Montpellier",
    "lat": 43.6108,
    "lng": 3.8767
  },
  {
    "name": "Hanover",
    "lat": 52.3759,
    "lng": 9.732
  },
  {
    "name": "Bonn",
    "lat": 50.7337,
    "lng": 7.0982
  },
  {
    "name": "Luxembourg City",
    "lat": 49.6116,
    "lng": 6.1319
  },
  {
    "name": "Reykjavik",
    "lat": 64.1265,
    "lng": -21.8174
  },
  {
    "name": "Minsk",
    "lat": 53.9006,
    "lng": 27.559
  },
  {
    "name": "Belgrade",
    "lat": 44.7866,
    "lng": 20.4489
  },
  {
    "name": "Lyon",
    "lat": 45.764,
    "lng": 4.8357
  },
  {
    "name": "Tbilisi",
    "lat": 41.7151,
    "lng": 44.8271
  },
  {
    "name": "Yerevan",
    "lat": 40.1792,
    "lng": 44.5152
  },
  {
    "name": "Sarajevo",
    "lat": 43.8563,
    "lng": 18.4131
  },
  {
    "name": "Tirana",
    "lat": 41.3275,
    "lng": 19.8187
  },
  {
    "name": "Skopje",
    "lat": 41.9973,
    "lng": 21.428
  },
  {
    "name": "Chisinau",
    "lat": 47.0105,
    "lng": 28.8638
  },
  {
    "name": "Baku",
    "lat": 40.4093,
    "lng": 49.8671
  },
  {
    "name": "Lille",
    "lat": 50.6292,
    "lng": 3.0573
  },
  {
    "name": "Malmo",
    "lat": 55.605,
    "lng": 13.0038
  },
  {
    "name": "Geneva",
    "lat": 46.2044,
    "lng": 6.1432
  },
  {
    "name": "Zurich",
    "lat": 47.3769,
    "lng": 8.5417
  },
  {
    "name": "Basel",
    "lat": 47.5596,
    "lng": 7.5886
  },
  {
    "name": "Bern",
    "lat": 46.948,
    "lng": 7.4474
  },
  {
    "name": "Lausanne",
    "lat": 46.5197,
    "lng": 6.6323
  },
  {
    "name": "Reykjavik",
    "lat": 64.1265,
    "lng": -21.8174
  },
  {
    "name": "Cork",
    "lat": 51.8985,
    "lng": -8.4756
  },
  {
    "name": "Galway",
    "lat": 53.2707,
    "lng": -9.0568
  },
  {
    "name": "Limerick",
    "lat": 52.6638,
    "lng": -8.6267
  },
  {
    "name": "Aberdeen",
    "lat": 57.1497,
    "lng": -2.0943
  },
  {
    "name": "Dundee",
    "lat": 56.462,
    "lng": -2.9707
  },
  {
    "name": "Newcastle",
    "lat": 54.9783,
    "lng": -1.6178
  },
  {
    "name": "Leeds",
    "lat": 53.8008,
    "lng": -1.5491
  },
  {
    "name": "Nottingham",
    "lat": 52.9548,
    "lng": -1.1581
  },
  {
    "name": "Southampton",
    "lat": 50.9097,
    "lng": -1.4044
  },
  {
    "name": "Portsmouth",
    "lat": 50.8198,
    "lng": -1.088
  },
  {
    "name": "Plymouth",
    "lat": 50.3755,
    "lng": -4.1427
  },
  {
    "name": "Rennes",
    "lat": 48.1173,
    "lng": -1.6778
  },
  {
    "name": "Reims",
    "lat": 49.2583,
    "lng": 4.0317
  },
  {
    "name": "Le Havre",
    "lat": 49.4944,
    "lng": 0.1079
  },
  {
    "name": "Saint-Etienne",
    "lat": 45.4397,
    "lng": 4.3872
  },
  {
    "name": "Toulon",
    "lat": 43.1242,
    "lng": 5.928
  },
  {
    "name": "Grenoble",
    "lat": 45.1885,
    "lng": 5.7245
  },
  {
    "name": "Dijon",
    "lat": 47.322,
    "lng": 5.0415
  },
  {
    "name": "Angers",
    "lat": 47.4784,
    "lng": -0.5632
  },
  {
    "name": "Le Mans",
    "lat": 48.0061,
    "lng": 0.1996
  },
  {
    "name": "Brest",
    "lat": 48.3904,
    "lng": -4.4861
  },
  {
    "name": "Valladolid",
    "lat": 41.6523,
    "lng": -4.7245
  },
  {
    "name": "Vigo",
    "lat": 42.2406,
    "lng": -8.7207
  },
  {
    "name": "Gijon",
    "lat": 43.5322,
    "lng": -5.6611
  },
  {
    "name": "A Coruna",
    "lat": 43.3623,
    "lng": -8.4115
  },
  {
    "name": "Granada",
    "lat": 37.1773,
    "lng": -3.5985
  },
  {
    "name": "Cordoba",
    "lat": 37.8882,
    "lng": -4.7794
  },
  {
    "name": "Alicante",
    "lat": 38.3452,
    "lng": -0.481
  },
  {
    "name": "Oviedo",
    "lat": 43.3603,
    "lng": -5.8448
  },
  {
    "name": "Santander",
    "lat": 43.4623,
    "lng": -3.8099
  },
  {
    "name": "San Sebastian",
    "lat": 43.3183,
    "lng": -1.9812
  },
  {
    "name": "Pamplona",
    "lat": 42.8125,
    "lng": -1.6458
  },
  {
    "name": "Brescia",
    "lat": 45.5416,
    "lng": 10.2118
  },
  {
    "name": "Prato",
    "lat": 43.8777,
    "lng": 11.1022
  },
  {
    "name": "Modena",
    "lat": 44.6471,
    "lng": 10.9252
  },
  {
    "name": "Reggio Emilia",
    "lat": 44.6982,
    "lng": 10.6312
  },
  {
    "name": "Perugia",
    "lat": 43.1107,
    "lng": 12.3908
  },
  {
    "name": "Livorno",
    "lat": 43.5485,
    "lng": 10.3106
  },
  {
    "name": "Cagliari",
    "lat": 39.2238,
    "lng": 9.1217
  },
  {
    "name": "Foggia",
    "lat": 41.4622,
    "lng": 15.5446
  },
  {
    "name": "Salerno",
    "lat": 40.6779,
    "lng": 14.7658
  },
  {
    "name": "Innsbruck",
    "lat": 47.2692,
    "lng": 11.4041
  },
  {
    "name": "Salzburg",
    "lat": 47.8095,
    "lng": 13.055
  },
  {
    "name": "Linz",
    "lat": 48.3069,
    "lng": 14.2858
  },
  {
    "name": "Graz",
    "lat": 47.0707,
    "lng": 15.4395
  },
  {
    "name": "Klagenfurt",
    "lat": 46.6247,
    "lng": 14.3053
  },
  {
    "name": "Debrecen",
    "lat": 47.5316,
    "lng": 21.6273
  },
  {
    "name": "Szeged",
    "lat": 46.253,
    "lng": 20.1414
  },
  {
    "name": "Miskolc",
    "lat": 48.1035,
    "lng": 20.7784
  },
  {
    "name": "Pecs",
    "lat": 46.0727,
    "lng": 18.2323
  },
  {
    "name": "Gyor",
    "lat": 47.6875,
    "lng": 17.6504
  },
  {
    "name": "Wroclaw",
    "lat": 51.1079,
    "lng": 17.0385
  },
  {
    "name": "Poznan",
    "lat": 52.4064,
    "lng": 16.9252
  },
  {
    "name": "Lodz",
    "lat": 51.7592,
    "lng": 19.456
  },
  {
    "name": "Szczecin",
    "lat": 53.4285,
    "lng": 14.5528
  },
  {
    "name": "Bydgoszcz",
    "lat": 53.1235,
    "lng": 18.0084
  },
  {
    "name": "Lublin",
    "lat": 51.2465,
    "lng": 22.5684
  },
  {
    "name": "Katowice",
    "lat": 50.2649,
    "lng": 19.0238
  },
  {
    "name": "Cluj-Napoca",
    "lat": 46.7712,
    "lng": 23.6236
  },
  {
    "name": "Timisoara",
    "lat": 45.7489,
    "lng": 21.2087
  },
  {
    "name": "Iasi",
    "lat": 47.1585,
    "lng": 27.6014
  },
  {
    "name": "Constanta",
    "lat": 44.1733,
    "lng": 28.6383
  },
  {
    "name": "Craiova",
    "lat": 44.3333,
    "lng": 23.8167
  },
  {
    "name": "Brasov",
    "lat": 45.658,
    "lng": 25.6012
  },
  {
    "name": "Kaunas",
    "lat": 54.8985,
    "lng": 23.9036
  },
  {
    "name": "Klaipeda",
    "lat": 55.7033,
    "lng": 21.1443
  },
  {
    "name": "Tartu",
    "lat": 58.378,
    "lng": 26.7285
  },
  {
    "name": "Daugavpils",
    "lat": 55.8747,
    "lng": 26.5362
  },
  {
    "name": "Uppsala",
    "lat": 59.8588,
    "lng": 17.6389
  },
  {
    "name": "Vasteras",
    "lat": 59.6099,
    "lng": 16.5448
  },
  {
    "name": "Orebro",
    "lat": 59.2753,
    "lng": 15.2134
  },
  {
    "name": "Espoo",
    "lat": 60.2055,
    "lng": 24.6559
  },
  {
    "name": "Tampere",
    "lat": 61.4978,
    "lng": 23.761
  },
  {
    "name": "Vantaa",
    "lat": 60.2934,
    "lng": 25.0378
  },
  {
    "name": "Bergen",
    "lat": 60.3913,
    "lng": 5.3221
  },
  {
    "name": "Trondheim",
    "lat": 63.4305,
    "lng": 10.3951
  },
  {
    "name": "Stavanger",
    "lat": 58.969,
    "lng": 5.7331
  },
  {
    "name": "Drammen",
    "lat": 59.7441,
    "lng": 10.2045
  },
  {
    "name": "Odense",
    "lat": 55.4038,
    "lng": 10.4024
  },
  {
    "name": "Aalborg",
    "lat": 57.0488,
    "lng": 9.9217
  },
  {
    "name": "Pristina",
    "lat": 42.6629,
    "lng": 21.1655
  },
  {
    "name": "Podgorica",
    "lat": 42.4304,
    "lng": 19.2594
  },
  {
    "name": "Shanghai",
    "lat": 31.22222,
    "lng": 121.45806
  },
  {
    "name": "Buenos Aires",
    "lat": -34.61315,
    "lng": -58.37723
  },
  {
    "name": "Mumbai",
    "lat": 19.07283,
    "lng": 72.88261
  },
  {
    "name": "Mexico City",
    "lat": 19.42847,
    "lng": -99.12766
  },
  {
    "name": "Beijing",
    "lat": 39.9075,
    "lng": 116.39723
  },
  {
    "name": "Karachi",
    "lat": 24.9056,
    "lng": 67.0822
  },
  {
    "name": "Istanbul",
    "lat": 41.01384,
    "lng": 28.94966
  },
  {
    "name": "Tianjin",
    "lat": 39.14222,
    "lng": 117.17667
  },
  {
    "name": "Guangzhou",
    "lat": 23.11667,
    "lng": 113.25
  },
  {
    "name": "Delhi",
    "lat": 28.65195,
    "lng": 77.23149
  },
  {
    "name": "Manila",
    "lat": 14.6042,
    "lng": 120.9822
  },
  {
    "name": "Moscow",
    "lat": 55.75222,
    "lng": 37.61556
  },
  {
    "name": "Shenzhen",
    "lat": 22.54554,
    "lng": 114.0683
  },
  {
    "name": "Dhaka",
    "lat": 23.7104,
    "lng": 90.40744
  },
  {
    "name": "Seoul",
    "lat": 37.566,
    "lng": 126.9784
  },
  {
    "name": "Sao Paulo",
    "lat": -23.5475,
    "lng": -46.63611
  },
  {
    "name": "Wuhan",
    "lat": 30.58333,
    "lng": 114.26667
  },
  {
    "name": "Lagos",
    "lat": 6.45407,
    "lng": 3.39467
  },
  {
    "name": "Jakarta",
    "lat": -6.21462,
    "lng": 106.84513
  },
  {
    "name": "Tokyo",
    "lat": 35.6895,
    "lng": 139.69171
  },
  {
    "name": "New York City",
    "lat": 40.71427,
    "lng": -74.00597
  },
  {
    "name": "Dongguan",
    "lat": 23.04889,
    "lng": 113.74472
  },
  {
    "name": "Taipei",
    "lat": 25.04776,
    "lng": 121.53185
  },
  {
    "name": "Kinshasa",
    "lat": -4.32758,
    "lng": 15.31357
  },
  {
    "name": "Lima",
    "lat": -12.04318,
    "lng": -77.02824
  },
  {
    "name": "Cairo",
    "lat": 30.06263,
    "lng": 31.24967
  },
  {
    "name": "Bogota",
    "lat": 4.60971,
    "lng": -74.08175
  },
  {
    "name": "City of London",
    "lat": 51.51279,
    "lng": -0.09184
  },
  {
    "name": "Chongqing",
    "lat": 29.56278,
    "lng": 106.55278
  },
  {
    "name": "Chengdu",
    "lat": 30.66667,
    "lng": 104.06667
  },
  {
    "name": "Nanjing",
    "lat": 32.06167,
    "lng": 118.77778
  },
  {
    "name": "Tehran",
    "lat": 35.69439,
    "lng": 51.42151
  },
  {
    "name": "Nanchong",
    "lat": 30.79508,
    "lng": 106.08473
  },
  {
    "name": "Hong Kong",
    "lat": 22.28552,
    "lng": 114.15769
  },
  {
    "name": "Xi'an",
    "lat": 34.25833,
    "lng": 108.92861
  },
  {
    "name": "Lahore",
    "lat": 31.54972,
    "lng": 74.34361
  },
  {
    "name": "Shenyang",
    "lat": 41.79222,
    "lng": 123.43278
  },
  {
    "name": "Hangzhou",
    "lat": 30.29365,
    "lng": 120.16142
  },
  {
    "name": "Rio de Janeiro",
    "lat": -22.90278,
    "lng": -43.2075
  },
  {
    "name": "Harbin",
    "lat": 45.75,
    "lng": 126.65
  },
  {
    "name": "Baghdad",
    "lat": 33.34058,
    "lng": 44.40088
  },
  {
    "name": "Tai'an",
    "lat": 36.18528,
    "lng": 117.12
  },
  {
    "name": "Suzhou",
    "lat": 31.30408,
    "lng": 120.59538
  },
  {
    "name": "Shantou",
    "lat": 23.36814,
    "lng": 116.71479
  },
  {
    "name": "Bangkok",
    "lat": 13.75398,
    "lng": 100.50144
  },
  {
    "name": "Bangalore",
    "lat": 12.97194,
    "lng": 77.59369
  },
  {
    "name": "Saint Petersburg",
    "lat": 59.93863,
    "lng": 30.31413
  },
  {
    "name": "Santiago",
    "lat": -33.45694,
    "lng": -70.64827
  },
  {
    "name": "Kolkata",
    "lat": 22.56263,
    "lng": 88.36304
  },
  {
    "name": "Sydney",
    "lat": -33.86785,
    "lng": 151.20732
  },
  {
    "name": "Yangon",
    "lat": 16.80528,
    "lng": 96.15611
  },
  {
    "name": "Jinan",
    "lat": 36.66833,
    "lng": 116.99722
  },
  {
    "name": "Chennai",
    "lat": 13.08784,
    "lng": 80.27847
  },
  {
    "name": "Zhengzhou",
    "lat": 34.75778,
    "lng": 113.64861
  },
  {
    "name": "Melbourne",
    "lat": -37.814,
    "lng": 144.96332
  },
  {
    "name": "Riyadh",
    "lat": 24.68773,
    "lng": 46.72185
  },
  {
    "name": "Changchun",
    "lat": 43.88,
    "lng": 125.32278
  },
  {
    "name": "Dalian",
    "lat": 38.91222,
    "lng": 121.60222
  },
  {
    "name": "Chittagong",
    "lat": 22.3384,
    "lng": 91.83168
  },
  {
    "name": "Kunming",
    "lat": 25.03889,
    "lng": 102.71833
  },
  {
    "name": "Alexandria",
    "lat": 31.21564,
    "lng": 29.95527
  },
  {
    "name": "Los Angeles",
    "lat": 34.05223,
    "lng": -118.24368
  },
  {
    "name": "Ahmedabad",
    "lat": 23.02579,
    "lng": 72.58727
  },
  {
    "name": "Qingdao",
    "lat": 36.06605,
    "lng": 120.36939
  },
  {
    "name": "Busan",
    "lat": 35.10278,
    "lng": 129.04028
  },
  {
    "name": "Abidjan",
    "lat": 5.30966,
    "lng": -4.01266
  },
  {
    "name": "Kano",
    "lat": 12.00012,
    "lng": 8.51672
  },
  {
    "name": "Foshan",
    "lat": 23.02677,
    "lng": 113.13148
  },
  {
    "name": "Hyderabad",
    "lat": 17.38405,
    "lng": 78.45636
  },
  {
    "name": "Puyang",
    "lat": 29.45679,
    "lng": 119.88872
  },
  {
    "name": "Yokohama",
    "lat": 35.44778,
    "lng": 139.6425
  },
  {
    "name": "Ibadan",
    "lat": 7.37756,
    "lng": 3.90591
  },
  {
    "name": "Singapore",
    "lat": 1.28967,
    "lng": 103.85007
  },
  {
    "name": "Wuxi",
    "lat": 31.56887,
    "lng": 120.28857
  },
  {
    "name": "Xiamen",
    "lat": 24.47979,
    "lng": 118.08187
  },
  {
    "name": "Ankara",
    "lat": 39.91987,
    "lng": 32.85427
  },
  {
    "name": "Tianshui",
    "lat": 34.57952,
    "lng": 105.74238
  },
  {
    "name": "Ningbo",
    "lat": 29.87819,
    "lng": 121.54945
  },
  {
    "name": "Ho Chi Minh City",
    "lat": 10.82302,
    "lng": 106.62965
  },
  {
    "name": "Shiyan",
    "lat": 32.6475,
    "lng": 110.77806
  },
  {
    "name": "Cape Town",
    "lat": -33.92584,
    "lng": 18.42322
  },
  {
    "name": "Taiyuan",
    "lat": 37.86944,
    "lng": 112.56028
  },
  {
    "name": "Tangshan",
    "lat": 39.63333,
    "lng": 118.18333
  },
  {
    "name": "Hefei",
    "lat": 31.86389,
    "lng": 117.28083
  },
  {
    "name": "Montreal",
    "lat": 45.50884,
    "lng": -73.58781
  },
  {
    "name": "Pyongyang",
    "lat": 39.03385,
    "lng": 125.75432
  },
  {
    "name": "Casablanca",
    "lat": 33.58831,
    "lng": -7.61138
  },
  {
    "name": "Zibo",
    "lat": 36.79056,
    "lng": 118.06333
  },
  {
    "name": "Zhongshan",
    "lat": 21.31992,
    "lng": 110.5723
  },
  {
    "name": "Durban",
    "lat": -29.8579,
    "lng": 31.0292
  },
  {
    "name": "Changsha",
    "lat": 28.19874,
    "lng": 112.97087
  },
  {
    "name": "Kabul",
    "lat": 34.52813,
    "lng": 69.17233
  },
  {
    "name": "UEruemqi",
    "lat": 43.80096,
    "lng": 87.60046
  },
  {
    "name": "Caracas",
    "lat": 10.48801,
    "lng": -66.87919
  },
  {
    "name": "Pune",
    "lat": 18.51957,
    "lng": 73.85535
  },
  {
    "name": "Surat",
    "lat": 21.19594,
    "lng": 72.83023
  },
  {
    "name": "Jeddah",
    "lat": 21.54238,
    "lng": 39.19797
  },
  {
    "name": "Shijiazhuang",
    "lat": 38.04139,
    "lng": 114.47861
  },
  {
    "name": "Kanpur",
    "lat": 26.4478,
    "lng": 80.34627
  },
  {
    "name": "Kiev",
    "lat": 50.45466,
    "lng": 30.5238
  },
  {
    "name": "Luanda",
    "lat": -8.83682,
    "lng": 13.23432
  },
  {
    "name": "Quezon City",
    "lat": 14.6488,
    "lng": 121.0509
  },
  {
    "name": "Addis Ababa",
    "lat": 9.02497,
    "lng": 38.74689
  },
  {
    "name": "Nairobi",
    "lat": -1.28333,
    "lng": 36.81667
  },
  {
    "name": "Salvador",
    "lat": -12.97111,
    "lng": -38.51083
  },
  {
    "name": "Jaipur",
    "lat": 26.91962,
    "lng": 75.78781
  },
  {
    "name": "Dar es Salaam",
    "lat": -6.82349,
    "lng": 39.26951
  },
  {
    "name": "Chicago",
    "lat": 41.85003,
    "lng": -87.65005
  },
  {
    "name": "Lanzhou",
    "lat": 36.05701,
    "lng": 103.83987
  },
  {
    "name": "Incheon",
    "lat": 37.45646,
    "lng": 126.70515
  },
  {
    "name": "Yunfu",
    "lat": 22.92833,
    "lng": 112.03954
  },
  {
    "name": "Toronto",
    "lat": 43.70011,
    "lng": -79.4163
  },
  {
    "name": "Navi Mumbai",
    "lat": 19.03681,
    "lng": 73.01582
  },
  {
    "name": "Al Basrah",
    "lat": 30.53302,
    "lng": 47.79747
  },
  {
    "name": "Osaka-shi",
    "lat": 34.69374,
    "lng": 135.50218
  },
  {
    "name": "Mogadishu",
    "lat": 2.03711,
    "lng": 45.34375
  },
  {
    "name": "Daegu",
    "lat": 35.87028,
    "lng": 128.59111
  },
  {
    "name": "Faisalabad",
    "lat": 31.41667,
    "lng": 73.08333
  },
  {
    "name": "Izmir",
    "lat": 38.41273,
    "lng": 27.13838
  },
  {
    "name": "Dakar",
    "lat": 14.6937,
    "lng": -17.44406
  },
  {
    "name": "Lucknow",
    "lat": 26.83928,
    "lng": 80.92313
  },
  {
    "name": "Al Jizah",
    "lat": 30.00808,
    "lng": 31.21093
  },
  {
    "name": "Fortaleza",
    "lat": -3.71722,
    "lng": -38.54306
  },
  {
    "name": "Cali",
    "lat": 3.43722,
    "lng": -76.5225
  },
  {
    "name": "Surabaya",
    "lat": -7.24917,
    "lng": 112.75083
  },
  {
    "name": "Belo Horizonte",
    "lat": -19.92083,
    "lng": -43.93778
  },
  {
    "name": "Nanchang",
    "lat": 28.68396,
    "lng": 115.85306
  },
  {
    "name": "Grand Dakar",
    "lat": 14.71331,
    "lng": -17.45472
  },
  {
    "name": "Mashhad",
    "lat": 36.31559,
    "lng": 59.56796
  },
  {
    "name": "Brooklyn",
    "lat": 40.6501,
    "lng": -73.94958
  },
  {
    "name": "Borough of Queens",
    "lat": 40.68149,
    "lng": -73.83652
  },
  {
    "name": "Nagpur",
    "lat": 21.14631,
    "lng": 79.08491
  },
  {
    "name": "Maracaibo",
    "lat": 10.63167,
    "lng": -71.64056
  },
  {
    "name": "Brasilia",
    "lat": -15.77972,
    "lng": -47.92972
  },
  {
    "name": "Santo Domingo",
    "lat": 18.50012,
    "lng": -69.98857
  },
  {
    "name": "Nagoya-shi",
    "lat": 35.18147,
    "lng": 136.90641
  },
  {
    "name": "Brisbane",
    "lat": -27.46794,
    "lng": 153.02809
  },
  {
    "name": "Havana",
    "lat": 23.13302,
    "lng": -82.38304
  },
  {
    "name": "Houston",
    "lat": 29.76328,
    "lng": -95.36327
  },
  {
    "name": "Al Mawsil al Jadidah",
    "lat": 36.33306,
    "lng": 43.1049
  },
  {
    "name": "Johannesburg",
    "lat": -26.20227,
    "lng": 28.04363
  },
  {
    "name": "Kowloon",
    "lat": 22.31667,
    "lng": 114.18333
  },
  {
    "name": "Al Basrah al Qadimah",
    "lat": 30.50316,
    "lng": 47.81507
  },
  {
    "name": "Almaty",
    "lat": 43.25654,
    "lng": 76.92848
  },
  {
    "name": "Medellin",
    "lat": 6.25184,
    "lng": -75.56359
  },
  {
    "name": "Tashkent",
    "lat": 41.26465,
    "lng": 69.21627
  },
  {
    "name": "Algiers",
    "lat": 36.7525,
    "lng": 3.04197
  },
  {
    "name": "Khartoum",
    "lat": 15.55177,
    "lng": 32.53241
  },
  {
    "name": "Accra",
    "lat": 5.55602,
    "lng": -0.1969
  },
  {
    "name": "Guayaquil",
    "lat": -2.20584,
    "lng": -79.90795
  },
  {
    "name": "Ordos",
    "lat": 39.6086,
    "lng": 109.78157
  },
  {
    "name": "Sanaa",
    "lat": 15.35472,
    "lng": 44.20667
  },
  {
    "name": "Beirut",
    "lat": 33.88894,
    "lng": 35.49442
  },
  {
    "name": "Perth",
    "lat": -31.95224,
    "lng": 115.8614
  },
  {
    "name": "Sapporo",
    "lat": 43.06417,
    "lng": 141.34695
  },
  {
    "name": "Jilin",
    "lat": 43.85083,
    "lng": 126.56028
  },
  {
    "name": "Camayenne",
    "lat": 9.535,
    "lng": -13.68778
  },
  {
    "name": "Vancouver",
    "lat": 49.24966,
    "lng": -123.11934
  },
  {
    "name": "Indore",
    "lat": 22.71792,
    "lng": 75.8333
  },
  {
    "name": "Iztapalapa",
    "lat": 19.35738,
    "lng": -99.0671
  },
  {
    "name": "Ecatepec",
    "lat": 19.61725,
    "lng": -99.06601
  },
  {
    "name": "Conakry",
    "lat": 9.53795,
    "lng": -13.67729
  },
  {
    "name": "Maracay",
    "lat": 10.24694,
    "lng": -67.59583
  },
  {
    "name": "Medan",
    "lat": 3.58333,
    "lng": 98.66667
  },
  {
    "name": "Rawalpindi",
    "lat": 33.6007,
    "lng": 73.0679
  },
  {
    "name": "Mosul",
    "lat": 36.335,
    "lng": 43.11889
  },
  {
    "name": "Curitiba",
    "lat": -25.42778,
    "lng": -49.27306
  },
  {
    "name": "Bandung",
    "lat": -6.90389,
    "lng": 107.61861
  },
  {
    "name": "Soweto",
    "lat": -26.26781,
    "lng": 27.85849
  },
  {
    "name": "Rabat",
    "lat": 34.01325,
    "lng": -6.83255
  },
  {
    "name": "Guadalajara",
    "lat": 20.66682,
    "lng": -103.39182
  },
  {
    "name": "Pretoria",
    "lat": -25.74486,
    "lng": 28.18783
  },
  {
    "name": "Aleppo",
    "lat": 36.20124,
    "lng": 37.16117
  },
  {
    "name": "Patna",
    "lat": 25.60222,
    "lng": 85.11936
  },
  {
    "name": "Bhopal",
    "lat": 23.25469,
    "lng": 77.40289
  },
  {
    "name": "Manaus",
    "lat": -3.10194,
    "lng": -60.025
  },
  {
    "name": "Xinyang",
    "lat": 32.12278,
    "lng": 114.06556
  },
  {
    "name": "Puebla",
    "lat": 19.04334,
    "lng": -98.20193
  },
  {
    "name": "Kaduna",
    "lat": 10.52641,
    "lng": 7.43879
  },
  {
    "name": "Phnom Penh",
    "lat": 11.56245,
    "lng": 104.91601
  },
  {
    "name": "Damascus",
    "lat": 33.5102,
    "lng": 36.29128
  },
  {
    "name": "Isfahan",
    "lat": 32.65246,
    "lng": 51.67462
  },
  {
    "name": "Ludhiana",
    "lat": 30.91204,
    "lng": 75.85379
  },
  {
    "name": "Harare",
    "lat": -17.82772,
    "lng": 31.05337
  },
  {
    "name": "Kobe",
    "lat": 34.6913,
    "lng": 135.183
  },
  {
    "name": "Philadelphia",
    "lat": 39.95233,
    "lng": -75.16379
  },
  {
    "name": "Bekasi",
    "lat": -6.2349,
    "lng": 106.9896
  },
  {
    "name": "Kaohsiung",
    "lat": 22.61626,
    "lng": 120.31333
  },
  {
    "name": "Ciudad Juarez",
    "lat": 31.73333,
    "lng": -106.48333
  },
  {
    "name": "Manhattan",
    "lat": 40.78343,
    "lng": -73.96625
  },
  {
    "name": "Asuncion",
    "lat": -25.30066,
    "lng": -57.63591
  },
  {
    "name": "Recife",
    "lat": -8.05389,
    "lng": -34.88111
  },
  {
    "name": "Daejeon",
    "lat": 36.32139,
    "lng": 127.41972
  },
  {
    "name": "Kumasi",
    "lat": 6.68848,
    "lng": -1.62443
  },
  {
    "name": "Kota Bharu",
    "lat": 6.13328,
    "lng": 102.2386
  },
  {
    "name": "Kyoto",
    "lat": 35.02107,
    "lng": 135.75385
  },
  {
    "name": "Kuala Lumpur",
    "lat": 3.1412,
    "lng": 101.68653
  },
  {
    "name": "Karaj",
    "lat": 35.83266,
    "lng": 50.99155
  },
  {
    "name": "Phoenix",
    "lat": 33.44838,
    "lng": -112.07404
  },
  {
    "name": "Kathmandu",
    "lat": 27.70169,
    "lng": 85.3206
  },
  {
    "name": "Palembang",
    "lat": -2.91673,
    "lng": 104.7458
  },
  {
    "name": "Multan",
    "lat": 30.19556,
    "lng": 71.47528
  },
  {
    "name": "Hanoi",
    "lat": 21.0245,
    "lng": 105.84117
  },
  {
    "name": "Kharkiv",
    "lat": 49.98081,
    "lng": 36.25272
  },
  {
    "name": "Agra",
    "lat": 27.18333,
    "lng": 78.01667
  },
  {
    "name": "Tabriz",
    "lat": 38.08,
    "lng": 46.2919
  },
  {
    "name": "Novosibirsk",
    "lat": 55.0415,
    "lng": 82.9346
  },
  {
    "name": "Gwangju",
    "lat": 35.15472,
    "lng": 126.91556
  },
  {
    "name": "Bursa",
    "lat": 40.19266,
    "lng": 29.08403
  },
  {
    "name": "Vadodara",
    "lat": 22.29941,
    "lng": 73.20812
  },
  {
    "name": "Belem",
    "lat": -1.45583,
    "lng": -48.50444
  },
  {
    "name": "Fushun",
    "lat": 41.85583,
    "lng": 123.92333
  },
  {
    "name": "Quito",
    "lat": -0.22985,
    "lng": -78.52495
  },
  {
    "name": "Fukuoka-shi",
    "lat": 33.60639,
    "lng": 130.41806
  },
  {
    "name": "Antananarivo",
    "lat": -18.91368,
    "lng": 47.53613
  },
  {
    "name": "Luoyang",
    "lat": 34.68361,
    "lng": 112.45361
  },
  {
    "name": "The Bronx",
    "lat": 40.84985,
    "lng": -73.86641
  },
  {
    "name": "Gujranwala",
    "lat": 32.16167,
    "lng": 74.18831
  },
  {
    "name": "Barranquilla",
    "lat": 10.96854,
    "lng": -74.78132
  },
  {
    "name": "Guankou",
    "lat": 28.15861,
    "lng": 113.62709
  },
  {
    "name": "Tijuana",
    "lat": 32.5027,
    "lng": -117.00371
  },
  {
    "name": "Lubumbashi",
    "lat": -11.66089,
    "lng": 27.47938
  },
  {
    "name": "Porto Alegre",
    "lat": -30.03306,
    "lng": -51.23
  },
  {
    "name": "Tangerang",
    "lat": -6.17806,
    "lng": 106.63
  },
  {
    "name": "Santa Cruz de la Sierra",
    "lat": -17.78629,
    "lng": -63.18117
  },
  {
    "name": "Handan",
    "lat": 36.60056,
    "lng": 114.46778
  },
  {
    "name": "Kampala",
    "lat": 0.31628,
    "lng": 32.58219
  },
  {
    "name": "Yekaterinburg",
    "lat": 56.8519,
    "lng": 60.6122
  },
  {
    "name": "Khulna",
    "lat": 22.80979,
    "lng": 89.56439
  },
  {
    "name": "Douala",
    "lat": 4.04827,
    "lng": 9.70428
  },
  {
    "name": "Gorakhpur",
    "lat": 29.44768,
    "lng": 75.67206
  },
  {
    "name": "Mecca",
    "lat": 21.42664,
    "lng": 39.82563
  },
  {
    "name": "Makassar",
    "lat": -5.14,
    "lng": 119.4221
  },
  {
    "name": "San Diego",
    "lat": 32.71533,
    "lng": -117.15726
  },
  {
    "name": "Kawasaki",
    "lat": 35.52056,
    "lng": 139.71722
  },
  {
    "name": "South Tangerang",
    "lat": -6.28862,
    "lng": 106.71789
  },
  {
    "name": "Baotou",
    "lat": 40.65222,
    "lng": 109.82222
  },
  {
    "name": "Medina",
    "lat": 24.46861,
    "lng": 39.61417
  },
  {
    "name": "Yaounde",
    "lat": 3.86667,
    "lng": 11.51667
  },
  {
    "name": "Bamako",
    "lat": 12.65,
    "lng": -8.0
  },
  {
    "name": "Nashik",
    "lat": 19.99727,
    "lng": 73.79096
  },
  {
    "name": "Semarang",
    "lat": -6.9932,
    "lng": 110.4203
  },
  {
    "name": "Brazzaville",
    "lat": -4.26613,
    "lng": 15.28318
  },
  {
    "name": "Pimpri",
    "lat": 18.62292,
    "lng": 73.80696
  },
  {
    "name": "Nizhniy Novgorod",
    "lat": 56.32867,
    "lng": 44.00205
  },
  {
    "name": "Amman",
    "lat": 31.95522,
    "lng": 35.94503
  },
  {
    "name": "Budta",
    "lat": 7.20417,
    "lng": 124.43972
  },
  {
    "name": "Montevideo",
    "lat": -34.90328,
    "lng": -56.18816
  },
  {
    "name": "Lusaka",
    "lat": -15.40669,
    "lng": 28.28713
  },
  {
    "name": "Kalyan",
    "lat": 19.2437,
    "lng": 73.13554
  },
  {
    "name": "Thane",
    "lat": 19.19704,
    "lng": 72.96355
  },
  {
    "name": "Ra's Bayrut",
    "lat": 33.9,
    "lng": 35.48333
  },
  {
    "name": "Shiraz",
    "lat": 29.61031,
    "lng": 52.53113
  },
  {
    "name": "Adana",
    "lat": 37.00167,
    "lng": 35.32889
  },
  {
    "name": "Suwon-si",
    "lat": 37.29111,
    "lng": 127.00889
  },
  {
    "name": "Milano",
    "lat": 45.46427,
    "lng": 9.18951
  },
  {
    "name": "Port-au-Prince",
    "lat": 18.53917,
    "lng": -72.335
  },
  {
    "name": "Ciudad Nezahualcoyotl",
    "lat": 19.40061,
    "lng": -99.01483
  },
  {
    "name": "Adelaide",
    "lat": -34.92866,
    "lng": 138.59863
  },
  {
    "name": "Meerut",
    "lat": 28.98002,
    "lng": 77.70636
  },
  {
    "name": "Nowrangapur",
    "lat": 19.23114,
    "lng": 82.54826
  },
  {
    "name": "Faridabad",
    "lat": 28.41124,
    "lng": 77.31316
  },
  {
    "name": "Peshawar",
    "lat": 34.008,
    "lng": 71.57849
  },
  {
    "name": "Davao",
    "lat": 7.07306,
    "lng": 125.61278
  },
  {
    "name": "Mandalay",
    "lat": 21.97473,
    "lng": 96.08359
  },
  {
    "name": "Yueyang",
    "lat": 29.37455,
    "lng": 113.09481
  },
  {
    "name": "Santiago de los Caballeros",
    "lat": 19.4517,
    "lng": -70.69703
  },
  {
    "name": "Omdurman",
    "lat": 15.64453,
    "lng": 32.47773
  },
  {
    "name": "Anshan",
    "lat": 41.12361,
    "lng": 122.99
  },
  {
    "name": "Tongshan",
    "lat": 34.18045,
    "lng": 117.15707
  },
  {
    "name": "Ghaziabad",
    "lat": 28.66535,
    "lng": 77.43915
  },
  {
    "name": "Depok",
    "lat": -6.4,
    "lng": 106.81861
  },
  {
    "name": "Dallas",
    "lat": 32.78306,
    "lng": -96.80667
  },
  {
    "name": "Saitama",
    "lat": 35.90807,
    "lng": 139.65657
  },
  {
    "name": "Gustavo A. Madero",
    "lat": 19.49016,
    "lng": -99.10978
  },
  {
    "name": "Dombivli",
    "lat": 19.21667,
    "lng": 73.08333
  },
  {
    "name": "Maputo",
    "lat": -25.96553,
    "lng": 32.58322
  },
  {
    "name": "Fuzhou",
    "lat": 26.06139,
    "lng": 119.30611
  },
  {
    "name": "Rajkot",
    "lat": 22.29161,
    "lng": 70.79322
  },
  {
    "name": "Rosario",
    "lat": -32.94682,
    "lng": -60.63932
  },
  {
    "name": "Guiyang",
    "lat": 26.58333,
    "lng": 106.71667
  },
  {
    "name": "Goiania",
    "lat": -16.67861,
    "lng": -49.25389
  },
  {
    "name": "Guarulhos",
    "lat": -23.46278,
    "lng": -46.53333
  },
  {
    "name": "Monaco",
    "lat": 43.7384,
    "lng": 7.4246
  },
  {
    "name": "Varanasi",
    "lat": 25.31668,
    "lng": 83.01041
  },
  {
    "name": "Tripoli",
    "lat": 32.87519,
    "lng": 13.18746
  },
  {
    "name": "Port Harcourt",
    "lat": 4.77742,
    "lng": 7.0134
  },
  {
    "name": "Hiroshima-shi",
    "lat": 34.39627,
    "lng": 132.45937
  },
  {
    "name": "Lijiang",
    "lat": 26.86879,
    "lng": 100.22072
  },
  {
    "name": "Dubai",
    "lat": 25.0657,
    "lng": 55.17128
  },
  {
    "name": "Samara",
    "lat": 53.20007,
    "lng": 50.15
  },
  {
    "name": "Omsk",
    "lat": 54.99244,
    "lng": 73.36859
  },
  {
    "name": "Benin City",
    "lat": 6.33815,
    "lng": 5.62575
  },
  {
    "name": "Monterrey",
    "lat": 25.67507,
    "lng": -100.31847
  },
  {
    "name": "Malingao",
    "lat": 7.16083,
    "lng": 124.475
  },
  {
    "name": "Leon",
    "lat": 21.13052,
    "lng": -101.671
  },
  {
    "name": "Maiduguri",
    "lat": 11.84692,
    "lng": 13.15712
  },
  {
    "name": "Kazan",
    "lat": 55.78874,
    "lng": 49.12214
  },
  {
    "name": "Amritsar",
    "lat": 31.63661,
    "lng": 74.87476
  },
  {
    "name": "Ouagadougou",
    "lat": 12.36566,
    "lng": -1.53388
  },
  {
    "name": "Yono",
    "lat": 35.88333,
    "lng": 139.63333
  },
  {
    "name": "Rostov-na-Donu",
    "lat": 47.23135,
    "lng": 39.72328
  },
  {
    "name": "Allahabad",
    "lat": 25.44894,
    "lng": 81.83329
  },
  {
    "name": "Goyang-si",
    "lat": 37.65639,
    "lng": 126.835
  },
  {
    "name": "Gaziantep",
    "lat": 37.05944,
    "lng": 37.3825
  },
  {
    "name": "Visakhapatnam",
    "lat": 17.68009,
    "lng": 83.20161
  },
  {
    "name": "Sendai-shi",
    "lat": 38.26889,
    "lng": 140.87195
  },
  {
    "name": "Sendai",
    "lat": 38.25759,
    "lng": 140.8667
  },
  {
    "name": "Chelyabinsk",
    "lat": 55.15402,
    "lng": 61.42915
  },
  {
    "name": "Datong",
    "lat": 40.09361,
    "lng": 113.29139
  },
  {
    "name": "Changshu City",
    "lat": 31.64615,
    "lng": 120.74221
  },
  {
    "name": "Taichung",
    "lat": 24.1469,
    "lng": 120.6839
  },
  {
    "name": "Teni",
    "lat": 10.01531,
    "lng": 77.482
  },
  {
    "name": "Xianyang",
    "lat": 34.33778,
    "lng": 108.70261
  },
  {
    "name": "Ufa",
    "lat": 54.74306,
    "lng": 55.96779
  },
  {
    "name": "Dnipropetrovsk",
    "lat": 48.45,
    "lng": 34.98333
  },
  {
    "name": "Seongnam-si",
    "lat": 37.43861,
    "lng": 127.13778
  },
  {
    "name": "Campinas",
    "lat": -22.90556,
    "lng": -47.06083
  },
  {
    "name": "Jabalpur",
    "lat": 23.16697,
    "lng": 79.95006
  },
  {
    "name": "Haora",
    "lat": 22.57688,
    "lng": 88.31857
  },
  {
    "name": "Huainan",
    "lat": 32.62639,
    "lng": 116.99694
  },
  {
    "name": "Donetsk",
    "lat": 48.023,
    "lng": 37.80224
  },
  {
    "name": "Calgary",
    "lat": 51.05011,
    "lng": -114.08529
  },
  {
    "name": "Aurangabad",
    "lat": 19.87757,
    "lng": 75.34226
  },
  {
    "name": "Volgograd",
    "lat": 48.71939,
    "lng": 44.50183
  },
  {
    "name": "Nova Iguacu",
    "lat": -22.75917,
    "lng": -43.45111
  },
  {
    "name": "Jieyang",
    "lat": 23.5418,
    "lng": 116.36581
  },
  {
    "name": "Odessa",
    "lat": 46.47747,
    "lng": 30.73262
  },
  {
    "name": "Zhu Cheng City",
    "lat": 35.99502,
    "lng": 119.40259
  },
  {
    "name": "Shivaji Nagar",
    "lat": 18.53017,
    "lng": 73.85263
  },
  {
    "name": "Kitakyushu",
    "lat": 33.83333,
    "lng": 130.83333
  },
  {
    "name": "Solapur",
    "lat": 17.67152,
    "lng": 75.91044
  },
  {
    "name": "Baoding",
    "lat": 38.85111,
    "lng": 115.49028
  },
  {
    "name": "Guatemala City",
    "lat": 14.64072,
    "lng": -90.51327
  },
  {
    "name": "Benxi",
    "lat": 41.28861,
    "lng": 123.765
  },
  {
    "name": "Zapopan",
    "lat": 20.72356,
    "lng": -103.38479
  },
  {
    "name": "Perm",
    "lat": 58.01046,
    "lng": 56.25017
  },
  {
    "name": "Srinagar",
    "lat": 34.08842,
    "lng": 74.80298
  },
  {
    "name": "Zaria",
    "lat": 11.11128,
    "lng": 7.7227
  },
  {
    "name": "Managua",
    "lat": 12.13282,
    "lng": -86.2504
  },
  {
    "name": "Port Elizabeth",
    "lat": -33.91799,
    "lng": 25.57007
  },
  {
    "name": "Fes",
    "lat": 34.03715,
    "lng": -4.9998
  },
  {
    "name": "Koeln",
    "lat": 50.93333,
    "lng": 6.95
  },
  {
    "name": "Ulsan",
    "lat": 35.53722,
    "lng": 129.31667
  },
  {
    "name": "Chandigarh",
    "lat": 30.73629,
    "lng": 76.7884
  },
  {
    "name": "Coimbatore",
    "lat": 11.00555,
    "lng": 76.96612
  },
  {
    "name": "Napoli",
    "lat": 40.85631,
    "lng": 14.24641
  },
  {
    "name": "Maceio",
    "lat": -9.66583,
    "lng": -35.73528
  },
  {
    "name": "Cartagena",
    "lat": 10.39972,
    "lng": -75.51444
  },
  {
    "name": "Changzhou",
    "lat": 31.77359,
    "lng": 119.95401
  },
  {
    "name": "Sultanah",
    "lat": 24.49258,
    "lng": 39.58572
  },
  {
    "name": "San Jose",
    "lat": 37.33939,
    "lng": -121.89496
  },
  {
    "name": "Monrovia",
    "lat": 6.30054,
    "lng": -10.7969
  },
  {
    "name": "Kingston",
    "lat": 17.99702,
    "lng": -76.79358
  },
  {
    "name": "Erbil",
    "lat": 36.19257,
    "lng": 44.01062
  },
  {
    "name": "Krasnoyarsk",
    "lat": 56.01839,
    "lng": 92.86717
  },
  {
    "name": "Nay Pyi Taw",
    "lat": 19.745,
    "lng": 96.12972
  },
  {
    "name": "Jodhpur",
    "lat": 26.26841,
    "lng": 73.00594
  },
  {
    "name": "Chiba",
    "lat": 35.60472,
    "lng": 140.12333
  },
  {
    "name": "Sao Luis",
    "lat": -2.52972,
    "lng": -44.30278
  },
  {
    "name": "Madurai",
    "lat": 9.91735,
    "lng": 78.11962
  },
  {
    "name": "Sale",
    "lat": 34.0531,
    "lng": -6.79846
  },
  {
    "name": "Huaibei",
    "lat": 33.97444,
    "lng": 116.79167
  },
  {
    "name": "Cochabamba",
    "lat": -17.3895,
    "lng": -66.1568
  },
  {
    "name": "Abobo",
    "lat": 5.41613,
    "lng": -4.0159
  },
  {
    "name": "Kaifeng",
    "lat": 34.7986,
    "lng": 114.30742
  },
  {
    "name": "Abu Ghurayb",
    "lat": 33.30563,
    "lng": 44.18477
  },
  {
    "name": "Qom",
    "lat": 34.6401,
    "lng": 50.8764
  },
  {
    "name": "Bishkek",
    "lat": 42.87,
    "lng": 74.59
  },
  {
    "name": "Guwahati",
    "lat": 26.1844,
    "lng": 91.7458
  },
  {
    "name": "Aba",
    "lat": 5.10658,
    "lng": 7.36667
  },
  {
    "name": "Pingdingshan",
    "lat": 33.73847,
    "lng": 113.30119
  },
  {
    "name": "Gwalior",
    "lat": 26.22983,
    "lng": 78.17337
  },
  {
    "name": "Qiqihar",
    "lat": 47.34088,
    "lng": 123.96045
  },
  {
    "name": "Klang",
    "lat": 3.03333,
    "lng": 101.45
  },
  {
    "name": "Mendoza",
    "lat": -32.89084,
    "lng": -68.82717
  },
  {
    "name": "Konya",
    "lat": 37.87135,
    "lng": 32.48464
  },
  {
    "name": "Mbuji-Mayi",
    "lat": -6.13603,
    "lng": 23.58979
  },
  {
    "name": "Vijayawada",
    "lat": 16.51928,
    "lng": 80.63049
  },
  {
    "name": "Pikine",
    "lat": 14.76457,
    "lng": -17.39071
  },
  {
    "name": "Mysore",
    "lat": 12.29791,
    "lng": 76.63925
  },
  {
    "name": "Wenzhou",
    "lat": 27.99942,
    "lng": 120.66682
  },
  {
    "name": "Saratov",
    "lat": 51.54056,
    "lng": 46.00861
  },
  {
    "name": "Tegucigalpa",
    "lat": 14.0818,
    "lng": -87.20681
  },
  {
    "name": "Bucheon-si",
    "lat": 37.49889,
    "lng": 126.78306
  },
  {
    "name": "Voronezh",
    "lat": 51.67204,
    "lng": 39.1843
  },
  {
    "name": "Ranchi",
    "lat": 23.34777,
    "lng": 85.33856
  },
  {
    "name": "Naucalpan de Juarez",
    "lat": 19.47851,
    "lng": -99.23963
  },
  {
    "name": "Ulaanbaatar",
    "lat": 47.90771,
    "lng": 106.88324
  },
  {
    "name": "Takeo",
    "lat": 10.99081,
    "lng": 104.78498
  },
  {
    "name": "Ahvaz",
    "lat": 31.31901,
    "lng": 48.6842
  },
  {
    "name": "Arequipa",
    "lat": -16.39889,
    "lng": -71.535
  },
  {
    "name": "Padang",
    "lat": -0.94924,
    "lng": 100.35427
  },
  {
    "name": "Hubli",
    "lat": 15.34776,
    "lng": 75.13378
  },
  {
    "name": "Marrakesh",
    "lat": 31.63416,
    "lng": -7.99994
  },
  {
    "name": "Kampung Baru Subang",
    "lat": 3.15,
    "lng": 101.53333
  },
  {
    "name": "Indianapolis",
    "lat": 39.76838,
    "lng": -86.15804
  },
  {
    "name": "Jacksonville",
    "lat": 30.33218,
    "lng": -81.65565
  },
  {
    "name": "Duque de Caxias",
    "lat": -22.78556,
    "lng": -43.31167
  },
  {
    "name": "Jos",
    "lat": 9.92849,
    "lng": 8.89212
  },
  {
    "name": "Ilorin",
    "lat": 8.49664,
    "lng": 4.54214
  },
  {
    "name": "Callao",
    "lat": -12.05659,
    "lng": -77.11814
  },
  {
    "name": "La Paz",
    "lat": -16.5,
    "lng": -68.15
  },
  {
    "name": "Ottawa",
    "lat": 45.41117,
    "lng": -75.69812
  },
  {
    "name": "Barquisimeto",
    "lat": 10.07389,
    "lng": -69.32278
  },
  {
    "name": "Chihuahua",
    "lat": 28.63528,
    "lng": -106.08889
  },
  {
    "name": "San Francisco",
    "lat": 37.77493,
    "lng": -122.41942
  },
  {
    "name": "Nanning",
    "lat": 22.81667,
    "lng": 108.31667
  },
  {
    "name": "Freetown",
    "lat": 8.484,
    "lng": -13.22994
  },
  {
    "name": "Johor Bahru",
    "lat": 1.4655,
    "lng": 103.7578
  },
  {
    "name": "Jerusalem",
    "lat": 31.76904,
    "lng": 35.21633
  },
  {
    "name": "Bandarlampung",
    "lat": -5.42544,
    "lng": 105.25803
  },
  {
    "name": "Zagreb - Centar",
    "lat": 45.81313,
    "lng": 15.97753
  },
  {
    "name": "Bogor",
    "lat": -6.59444,
    "lng": 106.78917
  },
  {
    "name": "Mombasa",
    "lat": -4.05466,
    "lng": 39.66359
  },
  {
    "name": "Cebu City",
    "lat": 10.31672,
    "lng": 123.89071
  },
  {
    "name": "Muscat",
    "lat": 23.61387,
    "lng": 58.5922
  },
  {
    "name": "Zaporizhzhya",
    "lat": 47.82289,
    "lng": 35.19031
  },
  {
    "name": "Zarqa",
    "lat": 32.07275,
    "lng": 36.08796
  },
  {
    "name": "Cankaya",
    "lat": 39.9179,
    "lng": 32.86268
  },
  {
    "name": "Austin",
    "lat": 30.26715,
    "lng": -97.74306
  },
  {
    "name": "Columbus",
    "lat": 39.96118,
    "lng": -82.99879
  },
  {
    "name": "Boumerdas",
    "lat": 36.76639,
    "lng": 3.47717
  },
  {
    "name": "Jalandhar",
    "lat": 31.32556,
    "lng": 75.57917
  },
  {
    "name": "Thiruvananthapuram",
    "lat": 8.4855,
    "lng": 76.94924
  },
  {
    "name": "Sakai",
    "lat": 34.58333,
    "lng": 135.46667
  },
  {
    "name": "Anyang",
    "lat": 36.09944,
    "lng": 114.32889
  },
  {
    "name": "San Miguel de Tucuman",
    "lat": -26.82414,
    "lng": -65.2226
  },
  {
    "name": "Salem",
    "lat": 11.65117,
    "lng": 78.15867
  },
  {
    "name": "Tiruchirappalli",
    "lat": 10.8155,
    "lng": 78.69651
  },
  {
    "name": "Homs",
    "lat": 34.72682,
    "lng": 36.72339
  },
  {
    "name": "Hohhot",
    "lat": 40.81056,
    "lng": 111.65222
  },
  {
    "name": "Niamey",
    "lat": 13.51366,
    "lng": 2.1098
  },
  {
    "name": "Tainan",
    "lat": 22.99083,
    "lng": 120.21333
  },
  {
    "name": "Shangyu",
    "lat": 30.01556,
    "lng": 120.87111
  },
  {
    "name": "Dammam",
    "lat": 26.43442,
    "lng": 50.10326
  },
  {
    "name": "Xining",
    "lat": 36.62554,
    "lng": 101.75739
  },
  {
    "name": "Kahriz",
    "lat": 34.3838,
    "lng": 47.0553
  },
  {
    "name": "Kota",
    "lat": 25.18254,
    "lng": 75.83907
  },
  {
    "name": "Natal",
    "lat": -5.795,
    "lng": -35.20944
  },
  {
    "name": "Bhubaneshwar",
    "lat": 20.27241,
    "lng": 85.83385
  },
  {
    "name": "Qinhuangdao",
    "lat": 39.93167,
    "lng": 119.58833
  },
  {
    "name": "Hengyang",
    "lat": 26.88946,
    "lng": 112.61888
  },
  {
    "name": "Antalya",
    "lat": 36.90812,
    "lng": 30.69556
  },
  {
    "name": "Aligarh",
    "lat": 27.88334,
    "lng": 78.07475
  },
  {
    "name": "Da Nang",
    "lat": 16.06778,
    "lng": 108.22083
  },
  {
    "name": "Pietermaritzburg",
    "lat": -29.61679,
    "lng": 30.39278
  },
  {
    "name": "Lome",
    "lat": 6.13748,
    "lng": 1.21227
  },
  {
    "name": "Trujillo",
    "lat": -8.11599,
    "lng": -79.02998
  },
  {
    "name": "Malang",
    "lat": -7.9797,
    "lng": 112.6304
  },
  {
    "name": "Ciudad Guayana",
    "lat": 8.35122,
    "lng": -62.64102
  },
  {
    "name": "Bareilly",
    "lat": 28.34702,
    "lng": 79.42193
  },
  {
    "name": "Kigali",
    "lat": -1.94995,
    "lng": 30.05885
  },
  {
    "name": "Teresina",
    "lat": -5.08917,
    "lng": -42.80194
  },
  {
    "name": "Xinxiang",
    "lat": 35.30889,
    "lng": 113.86722
  },
  {
    "name": "Sao Bernardo do Campo",
    "lat": -23.69389,
    "lng": -46.565
  },
  {
    "name": "Hegang",
    "lat": 47.35118,
    "lng": 130.30012
  },
  {
    "name": "Fort Worth",
    "lat": 32.72541,
    "lng": -97.32085
  },
  {
    "name": "Oyo",
    "lat": 7.85257,
    "lng": 3.93125
  },
  {
    "name": "Quetta",
    "lat": 30.199,
    "lng": 67.00971
  },
  {
    "name": "Charlotte",
    "lat": 35.22709,
    "lng": -80.84313
  },
  {
    "name": "Campo Grande",
    "lat": -20.44278,
    "lng": -54.64639
  },
  {
    "name": "Ashgabat",
    "lat": 37.95,
    "lng": 58.38333
  },
  {
    "name": "Alvaro Obregon",
    "lat": 19.35867,
    "lng": -99.20329
  },
  {
    "name": "Muzaffarabad",
    "lat": 34.37002,
    "lng": 73.47082
  },
  {
    "name": "Guadalupe",
    "lat": 25.67678,
    "lng": -100.25646
  },
  {
    "name": "Bagcilar",
    "lat": 41.03903,
    "lng": 28.85671
  },
  {
    "name": "As Sulaymaniyah",
    "lat": 35.56496,
    "lng": 45.4329
  },
  {
    "name": "Cucuta",
    "lat": 7.89391,
    "lng": -72.50782
  },
  {
    "name": "Moradabad",
    "lat": 28.83893,
    "lng": 78.77684
  },
  {
    "name": "N'Djamena",
    "lat": 12.10672,
    "lng": 15.0444
  },
  {
    "name": "Langfang",
    "lat": 39.50972,
    "lng": 116.69472
  },
  {
    "name": "Zhumadian",
    "lat": 32.97944,
    "lng": 114.02944
  },
  {
    "name": "Yantai",
    "lat": 37.47649,
    "lng": 121.44081
  },
  {
    "name": "L'viv",
    "lat": 49.83826,
    "lng": 24.02324
  },
  {
    "name": "Merida",
    "lat": 20.97537,
    "lng": -89.61696
  },
  {
    "name": "Tlalnepantla",
    "lat": 19.54005,
    "lng": -99.19538
  },
  {
    "name": "Detroit",
    "lat": 42.33143,
    "lng": -83.04575
  },
  {
    "name": "Edmonton",
    "lat": 53.55014,
    "lng": -113.46871
  },
  {
    "name": "Jeonju",
    "lat": 35.82194,
    "lng": 127.14889
  },
  {
    "name": "Zhuzhou",
    "lat": 27.83333,
    "lng": 113.15
  },
  {
    "name": "Subang Jaya",
    "lat": 3.04384,
    "lng": 101.58062
  },
  {
    "name": "Bhiwandi",
    "lat": 19.30023,
    "lng": 73.05881
  },
  {
    "name": "Pekanbaru",
    "lat": 0.53333,
    "lng": 101.45
  },
  {
    "name": "Sevilla",
    "lat": 37.38283,
    "lng": -5.97317
  },
  {
    "name": "Tol'yatti",
    "lat": 53.5303,
    "lng": 49.3461
  },
  {
    "name": "Jaboatao",
    "lat": -8.18028,
    "lng": -35.00139
  },
  {
    "name": "Shizuoka-shi",
    "lat": 34.97695,
    "lng": 138.38306
  },
  {
    "name": "Santo Domingo Oeste",
    "lat": 18.5,
    "lng": -70.0
  },
  {
    "name": "Rajshahi",
    "lat": 24.374,
    "lng": 88.60114
  },
  {
    "name": "City of Balikpapan",
    "lat": -1.24204,
    "lng": 116.89419
  },
  {
    "name": "Changzhi",
    "lat": 35.20889,
    "lng": 111.73861
  },
  {
    "name": "Bulawayo",
    "lat": -20.15,
    "lng": 28.58333
  },
  {
    "name": "Agadir",
    "lat": 30.42018,
    "lng": -9.59815
  },
  {
    "name": "La Plata",
    "lat": -34.92145,
    "lng": -57.95453
  },
  {
    "name": "Tunis",
    "lat": 36.81897,
    "lng": 10.16579
  },
  {
    "name": "Zhangjiakou",
    "lat": 40.81,
    "lng": 114.87944
  },
  {
    "name": "Cotonou",
    "lat": 6.36536,
    "lng": 2.41833
  },
  {
    "name": "Zigong",
    "lat": 29.34162,
    "lng": 104.77689
  },
  {
    "name": "Fuxin",
    "lat": 42.01556,
    "lng": 121.65889
  },
  {
    "name": "Enugu",
    "lat": 6.44132,
    "lng": 7.49883
  },
  {
    "name": "Tangier",
    "lat": 35.76727,
    "lng": -5.79975
  },
  {
    "name": "Huangshi",
    "lat": 30.24706,
    "lng": 115.04814
  },
  {
    "name": "Liaoyang",
    "lat": 41.27194,
    "lng": 123.17306
  },
  {
    "name": "Kumamoto",
    "lat": 32.80589,
    "lng": 130.69181
  },
  {
    "name": "Raipur",
    "lat": 21.23333,
    "lng": 81.63333
  },
  {
    "name": "General Santos",
    "lat": 6.11278,
    "lng": 125.17167
  },
  {
    "name": "Dushanbe",
    "lat": 38.53575,
    "lng": 68.77905
  },
  {
    "name": "Osasco",
    "lat": -23.5325,
    "lng": -46.79167
  },
  {
    "name": "San Luis Potosi",
    "lat": 22.14982,
    "lng": -100.97916
  },
  {
    "name": "Matola",
    "lat": -25.96222,
    "lng": 32.45889
  },
  {
    "name": "Culiacan",
    "lat": 24.79032,
    "lng": -107.38782
  },
  {
    "name": "Xiangtan",
    "lat": 27.85,
    "lng": 112.9
  },
  {
    "name": "Ipoh",
    "lat": 4.5841,
    "lng": 101.0829
  },
  {
    "name": "Mississauga",
    "lat": 43.5789,
    "lng": -79.6583
  },
  {
    "name": "Puyang Chengguanzhen",
    "lat": 35.70506,
    "lng": 115.01409
  },
  {
    "name": "Nantong",
    "lat": 32.03028,
    "lng": 120.87472
  },
  {
    "name": "Mudanjiang",
    "lat": 44.58333,
    "lng": 129.6
  },
  {
    "name": "Santo Andre",
    "lat": -23.66389,
    "lng": -46.53833
  },
  {
    "name": "Nouakchott",
    "lat": 18.08581,
    "lng": -15.9785
  },
  {
    "name": "Pointe-Noire",
    "lat": -4.77609,
    "lng": 11.86352
  },
  {
    "name": "Aguascalientes",
    "lat": 21.88234,
    "lng": -102.28259
  },
  {
    "name": "Kryvyi Rih",
    "lat": 47.90966,
    "lng": 33.38044
  },
  {
    "name": "Acapulco de Juarez",
    "lat": 16.86336,
    "lng": -99.8901
  },
  {
    "name": "Joao Pessoa",
    "lat": -7.115,
    "lng": -34.86306
  },
  {
    "name": "Ansan-si",
    "lat": 37.32361,
    "lng": 126.82194
  },
  {
    "name": "Benghazi",
    "lat": 32.11486,
    "lng": 20.06859
  },
  {
    "name": "Frankfurt am Main",
    "lat": 50.11552,
    "lng": 8.68417
  },
  {
    "name": "Krasnodar",
    "lat": 45.04484,
    "lng": 38.97603
  },
  {
    "name": "Guilin",
    "lat": 25.28194,
    "lng": 110.28639
  },
  {
    "name": "El Paso",
    "lat": 31.75872,
    "lng": -106.48693
  },
  {
    "name": "Colombo",
    "lat": 6.93194,
    "lng": 79.84778
  },
  {
    "name": "Memphis",
    "lat": 35.14953,
    "lng": -90.04898
  },
  {
    "name": "Lilongwe",
    "lat": -13.96692,
    "lng": 33.78725
  },
  {
    "name": "Oran",
    "lat": 35.69111,
    "lng": -0.64167
  },
  {
    "name": "Diyarbakir",
    "lat": 37.91363,
    "lng": 40.21721
  },
  {
    "name": "Taguig",
    "lat": 14.5243,
    "lng": 121.0792
  },
  {
    "name": "New South Memphis",
    "lat": 35.08676,
    "lng": -90.05676
  },
  {
    "name": "Ulyanovsk",
    "lat": 54.32824,
    "lng": 48.38657
  },
  {
    "name": "Kotli",
    "lat": 33.51667,
    "lng": 73.91667
  },
  {
    "name": "Okayama-shi",
    "lat": 34.66167,
    "lng": 133.935
  },
  {
    "name": "Zhanjiang",
    "lat": 21.28145,
    "lng": 110.34271
  },
  {
    "name": "Al Ahmadi",
    "lat": 29.07694,
    "lng": 48.08389
  },
  {
    "name": "Yogyakarta",
    "lat": -7.78278,
    "lng": 110.36083
  },
  {
    "name": "North York",
    "lat": 43.76681,
    "lng": -79.4163
  },
  {
    "name": "Cheongju-si",
    "lat": 36.63722,
    "lng": 127.48972
  },
  {
    "name": "Anyang-si",
    "lat": 37.3925,
    "lng": 126.92694
  },
  {
    "name": "Tebessa",
    "lat": 35.40417,
    "lng": 8.12417
  },
  {
    "name": "Zhenjiang",
    "lat": 32.21086,
    "lng": 119.45508
  },
  {
    "name": "Winnipeg",
    "lat": 49.8844,
    "lng": -97.14704
  },
  {
    "name": "Dandong",
    "lat": 40.12917,
    "lng": 124.39472
  },
  {
    "name": "Izhevsk",
    "lat": 56.84976,
    "lng": 53.20448
  },
  {
    "name": "Jaboatao dos Guararapes",
    "lat": -8.11278,
    "lng": -35.01472
  },
  {
    "name": "Shaoguan",
    "lat": 24.8,
    "lng": 113.58333
  },
  {
    "name": "Yancheng",
    "lat": 33.3575,
    "lng": 120.1573
  },
  {
    "name": "Coyoacan",
    "lat": 19.3467,
    "lng": -99.16174
  },
  {
    "name": "Contagem",
    "lat": -19.93167,
    "lng": -44.05361
  },
  {
    "name": "Santiago de Queretaro",
    "lat": 20.58806,
    "lng": -100.38806
  },
  {
    "name": "Bhilai",
    "lat": 21.21667,
    "lng": 81.43333
  },
  {
    "name": "Panshan",
    "lat": 41.18806,
    "lng": 122.04944
  },
  {
    "name": "Djibouti",
    "lat": 11.58901,
    "lng": 43.14503
  },
  {
    "name": "Saltillo",
    "lat": 25.42321,
    "lng": -101.0053
  },
  {
    "name": "Kermanshah",
    "lat": 34.31417,
    "lng": 47.065
  },
  {
    "name": "Baltimore",
    "lat": 39.29038,
    "lng": -76.61219
  },
  {
    "name": "Ribeirao Preto",
    "lat": -21.1775,
    "lng": -47.81028
  },
  {
    "name": "Al Hudaydah",
    "lat": 14.79781,
    "lng": 42.95452
  },
  {
    "name": "Boston",
    "lat": 42.35843,
    "lng": -71.05977
  },
  {
    "name": "Pasig City",
    "lat": 14.58691,
    "lng": 121.0614
  },
  {
    "name": "Jamshedpur",
    "lat": 22.80278,
    "lng": 86.18545
  },
  {
    "name": "Haikou",
    "lat": 20.04583,
    "lng": 110.34167
  },
  {
    "name": "Ta`izz",
    "lat": 13.57952,
    "lng": 44.02091
  },
  {
    "name": "Sao Jose dos Campos",
    "lat": -23.17944,
    "lng": -45.88694
  },
  {
    "name": "Taizhou",
    "lat": 32.49069,
    "lng": 119.90812
  },
  {
    "name": "Xingtai",
    "lat": 37.06306,
    "lng": 114.49417
  },
  {
    "name": "Borivli",
    "lat": 19.23496,
    "lng": 72.85976
  },
  {
    "name": "Seattle",
    "lat": 47.60621,
    "lng": -122.33207
  },
  {
    "name": "Tlalpan",
    "lat": 19.29707,
    "lng": -99.16787
  },
  {
    "name": "Yaroslavl",
    "lat": 57.62987,
    "lng": 39.87368
  },
  {
    "name": "Benoni",
    "lat": -26.18848,
    "lng": 28.32078
  },
  {
    "name": "Hamamatsu",
    "lat": 34.7,
    "lng": 137.73333
  },
  {
    "name": "Cochin",
    "lat": 9.93988,
    "lng": 76.26022
  },
  {
    "name": "Jinzhou",
    "lat": 41.10778,
    "lng": 121.14167
  },
  {
    "name": "Amravati",
    "lat": 20.93333,
    "lng": 77.75
  },
  {
    "name": "Abu Dhabi",
    "lat": 24.46667,
    "lng": 54.36667
  },
  {
    "name": "Haiphong",
    "lat": 20.86481,
    "lng": 106.68345
  },
  {
    "name": "Washington, D.C.",
    "lat": 38.89511,
    "lng": -77.03637
  },
  {
    "name": "Islamabad",
    "lat": 33.72148,
    "lng": 73.04329
  },
  {
    "name": "Kirkuk",
    "lat": 35.46806,
    "lng": 44.39222
  },
  {
    "name": "Sangli",
    "lat": 16.85438,
    "lng": 74.56417
  },
  {
    "name": "Denver",
    "lat": 39.73915,
    "lng": -104.9847
  },
  {
    "name": "Scarborough",
    "lat": 43.77223,
    "lng": -79.25666
  },
  {
    "name": "Shuangyashan",
    "lat": 46.63611,
    "lng": 131.15389
  },
  {
    "name": "Situbondo",
    "lat": -7.70623,
    "lng": 114.00976
  },
  {
    "name": "Barnaul",
    "lat": 53.36056,
    "lng": 83.76361
  },
  {
    "name": "Luancheng",
    "lat": 37.87917,
    "lng": 114.65167
  },
  {
    "name": "Mexicali",
    "lat": 32.62781,
    "lng": -115.45446
  },
  {
    "name": "Hermosillo",
    "lat": 29.1026,
    "lng": -110.97732
  },
  {
    "name": "Milwaukee",
    "lat": 43.0389,
    "lng": -87.90647
  },
  {
    "name": "Rasht",
    "lat": 37.28077,
    "lng": 49.58319
  },
  {
    "name": "Abeokuta",
    "lat": 7.15571,
    "lng": 3.34509
  },
  {
    "name": "Kayseri",
    "lat": 38.73222,
    "lng": 35.48528
  },
  {
    "name": "Morelia",
    "lat": 19.70078,
    "lng": -101.18443
  },
  {
    "name": "Gold Coast",
    "lat": -28.00029,
    "lng": 153.43088
  },
  {
    "name": "Yingkou",
    "lat": 40.66482,
    "lng": 122.22833
  },
  {
    "name": "Abuja",
    "lat": 9.05785,
    "lng": 7.49508
  },
  {
    "name": "Zhangzhou",
    "lat": 24.51333,
    "lng": 117.65556
  },
  {
    "name": "Vladivostok",
    "lat": 43.10562,
    "lng": 131.87353
  },
  {
    "name": "Irkutsk",
    "lat": 52.29778,
    "lng": 104.29639
  },
  {
    "name": "Blantyre",
    "lat": -15.78499,
    "lng": 35.00854
  },
  {
    "name": "New Kingston",
    "lat": 18.00747,
    "lng": -76.78319
  },
  {
    "name": "Las Vegas",
    "lat": 36.17497,
    "lng": -115.13722
  },
  {
    "name": "UEskuedar",
    "lat": 41.02252,
    "lng": 29.02369
  },
  {
    "name": "Cuttack",
    "lat": 20.46497,
    "lng": 85.87927
  },
  {
    "name": "Oklahoma City",
    "lat": 35.46756,
    "lng": -97.51643
  },
  {
    "name": "Hachioji",
    "lat": 35.65583,
    "lng": 139.32389
  },
  {
    "name": "Khabarovsk",
    "lat": 48.48271,
    "lng": 135.08379
  },
  {
    "name": "Khabarovsk Vtoroy",
    "lat": 48.43776,
    "lng": 135.13329
  },
  {
    "name": "Libreville",
    "lat": 0.39241,
    "lng": 9.45356
  },
  {
    "name": "Kerman",
    "lat": 30.28321,
    "lng": 57.07879
  },
  {
    "name": "Chiclayo",
    "lat": -6.77137,
    "lng": -79.84088
  },
  {
    "name": "Orumiyeh",
    "lat": 37.55274,
    "lng": 45.07605
  },
  {
    "name": "Bahcelievler",
    "lat": 41.00231,
    "lng": 28.8598
  },
  {
    "name": "Bengbu",
    "lat": 32.94083,
    "lng": 117.36083
  },
  {
    "name": "Bikaner",
    "lat": 28.02094,
    "lng": 73.30749
  },
  {
    "name": "Umraniye",
    "lat": 41.01643,
    "lng": 29.12476
  },
  {
    "name": "Banjarmasin",
    "lat": -3.31987,
    "lng": 114.59075
  },
  {
    "name": "Shihezi",
    "lat": 44.3023,
    "lng": 86.03694
  },
  {
    "name": "Bucaramanga",
    "lat": 7.12539,
    "lng": -73.1198
  },
  {
    "name": "South Boston",
    "lat": 42.33343,
    "lng": -71.04949
  },
  {
    "name": "Kuching",
    "lat": 1.55,
    "lng": 110.33333
  },
  {
    "name": "Veracruz",
    "lat": 19.18095,
    "lng": -96.1429
  },
  {
    "name": "Bouake",
    "lat": 7.69385,
    "lng": -5.03031
  },
  {
    "name": "Asmara",
    "lat": 15.33805,
    "lng": 38.93184
  },
  {
    "name": "Sokoto",
    "lat": 13.06269,
    "lng": 5.24322
  },
  {
    "name": "Uberlandia",
    "lat": -18.91861,
    "lng": -48.27722
  },
  {
    "name": "Onitsha",
    "lat": 6.14978,
    "lng": 6.78569
  },
  {
    "name": "Funabashi",
    "lat": 35.69306,
    "lng": 139.98333
  },
  {
    "name": "Hamhung",
    "lat": 39.91833,
    "lng": 127.53639
  },
  {
    "name": "Sorocaba",
    "lat": -23.50167,
    "lng": -47.45806
  },
  {
    "name": "Warangal",
    "lat": 18.0,
    "lng": 79.58333
  },
  {
    "name": "Santiago de Cuba",
    "lat": 20.02472,
    "lng": -75.82194
  },
  {
    "name": "Siping",
    "lat": 43.16143,
    "lng": 124.37785
  },
  {
    "name": "Kagoshima-shi",
    "lat": 31.56019,
    "lng": 130.55814
  },
  {
    "name": "Surakarta",
    "lat": -7.55611,
    "lng": 110.83167
  },
  {
    "name": "Huai'an",
    "lat": 33.58861,
    "lng": 119.01917
  },
  {
    "name": "Bhavnagar",
    "lat": 21.77445,
    "lng": 72.1525
  },
  {
    "name": "Mar del Plata",
    "lat": -38.00228,
    "lng": -57.55754
  },
  {
    "name": "Bahawalpur",
    "lat": 29.4,
    "lng": 71.68333
  },
  {
    "name": "Zahedan",
    "lat": 29.4963,
    "lng": 60.8629
  },
  {
    "name": "Aden",
    "lat": 12.77944,
    "lng": 45.03667
  },
  {
    "name": "Nanded",
    "lat": 19.16023,
    "lng": 77.31497
  },
  {
    "name": "Orenburg",
    "lat": 51.7727,
    "lng": 55.0988
  },
  {
    "name": "Changwon",
    "lat": 35.22806,
    "lng": 128.68111
  },
  {
    "name": "Jiamusi",
    "lat": 46.79927,
    "lng": 130.31633
  },
  {
    "name": "Antipolo",
    "lat": 14.62578,
    "lng": 121.12251
  },
  {
    "name": "Neijiang",
    "lat": 29.58354,
    "lng": 105.06216
  },
  {
    "name": "Albuquerque",
    "lat": 35.08449,
    "lng": -106.65114
  },
  {
    "name": "Meknes",
    "lat": 33.89352,
    "lng": -5.54727
  },
  {
    "name": "Sharjah",
    "lat": 25.33737,
    "lng": 55.41206
  },
  {
    "name": "Banqiao",
    "lat": 25.01427,
    "lng": 121.46719
  },
  {
    "name": "Sargodha",
    "lat": 32.08361,
    "lng": 72.67111
  },
  {
    "name": "Bangui",
    "lat": 4.36122,
    "lng": 18.55496
  },
  {
    "name": "Cancun",
    "lat": 21.17429,
    "lng": -86.84656
  },
  {
    "name": "Yangzhou",
    "lat": 32.39722,
    "lng": 119.43583
  },
  {
    "name": "Novokuznetsk",
    "lat": 53.7557,
    "lng": 87.1099
  },
  {
    "name": "Kisangani",
    "lat": 0.51528,
    "lng": 25.19099
  },
  {
    "name": "Port Said",
    "lat": 31.25654,
    "lng": 32.28411
  },
  {
    "name": "Mercin",
    "lat": 36.79526,
    "lng": 34.61792
  },
  {
    "name": "Warri",
    "lat": 5.51737,
    "lng": 5.75006
  },
  {
    "name": "Guli",
    "lat": 28.88162,
    "lng": 120.03308
  },
  {
    "name": "Ebute Ikorodu",
    "lat": 6.60086,
    "lng": 3.48818
  },
  {
    "name": "Tanggu",
    "lat": 39.02111,
    "lng": 117.64694
  },
  {
    "name": "Jiangmen",
    "lat": 22.58333,
    "lng": 113.08333
  },
  {
    "name": "Nashville",
    "lat": 36.16589,
    "lng": -86.78444
  },
  {
    "name": "Ta'if",
    "lat": 21.27028,
    "lng": 40.41583
  },
  {
    "name": "Beira",
    "lat": -19.84361,
    "lng": 34.83889
  },
  {
    "name": "Guntur",
    "lat": 16.29974,
    "lng": 80.45729
  },
  {
    "name": "Touba",
    "lat": 14.85,
    "lng": -15.88333
  },
  {
    "name": "Quebec",
    "lat": 46.81228,
    "lng": -71.21454
  },
  {
    "name": "Hamadan",
    "lat": 34.79922,
    "lng": 48.51456
  },
  {
    "name": "Cangzhou",
    "lat": 38.31667,
    "lng": 116.86667
  },
  {
    "name": "San Salvador",
    "lat": 13.68935,
    "lng": -89.18718
  },
  {
    "name": "Santa Maria Chimalhuacan",
    "lat": 19.42155,
    "lng": -98.95038
  },
  {
    "name": "Torreon",
    "lat": 25.54389,
    "lng": -103.41898
  },
  {
    "name": "Dehradun",
    "lat": 30.32443,
    "lng": 78.03392
  },
  {
    "name": "Cuiaba",
    "lat": -15.59611,
    "lng": -56.09667
  },
  {
    "name": "Cuauhtemoc",
    "lat": 19.44506,
    "lng": -99.14612
  },
  {
    "name": "Ciudad Lopez Mateos",
    "lat": 19.58547,
    "lng": -99.26035
  },
  {
    "name": "Petaling Jaya",
    "lat": 3.10726,
    "lng": 101.60671
  },
  {
    "name": "Macau",
    "lat": 22.20056,
    "lng": 113.54611
  },
  {
    "name": "Bhayandar",
    "lat": 19.30157,
    "lng": 72.85107
  },
  {
    "name": "Esenler",
    "lat": 41.0435,
    "lng": 28.87619
  },
  {
    "name": "Ryazan'",
    "lat": 54.6269,
    "lng": 39.6916
  },
  {
    "name": "Tucson",
    "lat": 32.22174,
    "lng": -110.92648
  },
  {
    "name": "Hamilton",
    "lat": 43.25011,
    "lng": -79.84963
  },
  {
    "name": "Tyumen",
    "lat": 57.15222,
    "lng": 65.52722
  },
  {
    "name": "Durgapur",
    "lat": 23.49957,
    "lng": 87.32155
  },
  {
    "name": "Quilmes",
    "lat": -34.72418,
    "lng": -58.25265
  },
  {
    "name": "Ajmer",
    "lat": 26.44976,
    "lng": 74.64116
  },
  {
    "name": "Changde",
    "lat": 29.04638,
    "lng": 111.6783
  },
  {
    "name": "Jiaozuo",
    "lat": 35.23972,
    "lng": 113.23306
  },
  {
    "name": "Ulhasnagar",
    "lat": 19.21667,
    "lng": 73.15
  },
  {
    "name": "Kolhapur",
    "lat": 16.69563,
    "lng": 74.23167
  },
  {
    "name": "Lipetsk",
    "lat": 52.60311,
    "lng": 39.57076
  },
  {
    "name": "Shiliguri",
    "lat": 26.71004,
    "lng": 88.42851
  },
  {
    "name": "Hannover",
    "lat": 52.37052,
    "lng": 9.73322
  },
  {
    "name": "Eskisehir",
    "lat": 39.77667,
    "lng": 30.52056
  },
  {
    "name": "Azadshahr",
    "lat": 34.79049,
    "lng": 48.57011
  },
  {
    "name": "Salta",
    "lat": -24.7859,
    "lng": -65.41166
  },
  {
    "name": "Penza",
    "lat": 53.20066,
    "lng": 45.00464
  },
  {
    "name": "Tembisa",
    "lat": -25.99636,
    "lng": 28.2268
  },
  {
    "name": "Bilimora",
    "lat": 20.76957,
    "lng": 72.96134
  },
  {
    "name": "Mykolayiv",
    "lat": 46.96591,
    "lng": 31.9974
  },
  {
    "name": "Aparecida de Goiania",
    "lat": -16.82333,
    "lng": -49.24389
  },
  {
    "name": "Puente Alto",
    "lat": -33.61169,
    "lng": -70.57577
  },
  {
    "name": "Makati City",
    "lat": 14.55027,
    "lng": 121.03269
  },
  {
    "name": "Naberezhnyye Chelny",
    "lat": 55.72545,
    "lng": 52.41122
  },
  {
    "name": "Wuhu",
    "lat": 31.33728,
    "lng": 118.37351
  },
  {
    "name": "Toluca",
    "lat": 19.28786,
    "lng": -99.65324
  },
  {
    "name": "Niigata-shi",
    "lat": 37.90222,
    "lng": 139.02361
  },
  {
    "name": "Karol Bagh",
    "lat": 28.65136,
    "lng": 77.19072
  },
  {
    "name": "Kalininskiy",
    "lat": 59.99675,
    "lng": 30.3899
  },
  {
    "name": "Duisburg",
    "lat": 51.43247,
    "lng": 6.76516
  },
  {
    "name": "Asansol",
    "lat": 23.68333,
    "lng": 86.98333
  },
  {
    "name": "Goeteborg",
    "lat": 57.70716,
    "lng": 11.96679
  },
  {
    "name": "Arak",
    "lat": 34.09174,
    "lng": 49.68916
  },
  {
    "name": "Astrakhan'",
    "lat": 46.34968,
    "lng": 48.04076
  },
  {
    "name": "Zhuhai",
    "lat": 22.27694,
    "lng": 113.56778
  },
  {
    "name": "Pohang",
    "lat": 36.03222,
    "lng": 129.365
  },
  {
    "name": "Nuernberg",
    "lat": 49.45421,
    "lng": 11.07752
  },
  {
    "name": "Shashi",
    "lat": 30.30722,
    "lng": 112.24472
  },
  {
    "name": "Reynosa",
    "lat": 26.08061,
    "lng": -98.28835
  },
  {
    "name": "Makhachkala",
    "lat": 42.97638,
    "lng": 47.50236
  },
  {
    "name": "Fresno",
    "lat": 36.74773,
    "lng": -119.77237
  },
  {
    "name": "Cimahi",
    "lat": -6.87222,
    "lng": 107.5425
  },
  {
    "name": "Tlaquepaque",
    "lat": 20.64091,
    "lng": -103.29327
  },
  {
    "name": "Wuwei",
    "lat": 37.92672,
    "lng": 102.63202
  },
  {
    "name": "Jamnagar",
    "lat": 22.47292,
    "lng": 70.06673
  },
  {
    "name": "Aracaju",
    "lat": -10.91111,
    "lng": -37.07167
  },
  {
    "name": "Port Sudan",
    "lat": 19.61745,
    "lng": 37.21644
  },
  {
    "name": "Santa Fe de la Vera Cruz",
    "lat": -31.63333,
    "lng": -60.7
  },
  {
    "name": "San Pedro Sula",
    "lat": 15.50417,
    "lng": -88.025
  },
  {
    "name": "Suez",
    "lat": 29.97371,
    "lng": 32.52627
  },
  {
    "name": "Tomsk",
    "lat": 56.49771,
    "lng": 84.97437
  },
  {
    "name": "Masina",
    "lat": -4.38361,
    "lng": 15.39139
  },
  {
    "name": "Saharanpur",
    "lat": 29.9679,
    "lng": 77.54522
  },
  {
    "name": "Gulbarga",
    "lat": 17.33763,
    "lng": 76.83787
  },
  {
    "name": "Bhatpara",
    "lat": 22.86643,
    "lng": 88.40113
  },
  {
    "name": "An Najaf",
    "lat": 32.02594,
    "lng": 44.34625
  },
  {
    "name": "Feira de Santana",
    "lat": -12.26667,
    "lng": -38.96667
  },
  {
    "name": "Shah Alam",
    "lat": 3.08507,
    "lng": 101.53281
  },
  {
    "name": "Mariupol",
    "lat": 47.09514,
    "lng": 37.54131
  },
  {
    "name": "Himeji",
    "lat": 34.81667,
    "lng": 134.7
  },
  {
    "name": "Tuxtla Gutierrez",
    "lat": 16.75973,
    "lng": -93.11308
  },
  {
    "name": "Gomel",
    "lat": 52.4345,
    "lng": 30.9754
  },
  {
    "name": "Okene",
    "lat": 7.55122,
    "lng": 6.23589
  },
  {
    "name": "Uijeongbu-si",
    "lat": 37.7415,
    "lng": 127.0474
  },
  {
    "name": "East London",
    "lat": -33.01529,
    "lng": 27.91162
  },
  {
    "name": "Yazd",
    "lat": 31.89722,
    "lng": 54.3675
  },
  {
    "name": "Hargeysa",
    "lat": 9.56,
    "lng": 44.065
  },
  {
    "name": "Sialkot",
    "lat": 32.49268,
    "lng": 74.53134
  },
  {
    "name": "Kemerovo",
    "lat": 55.33333,
    "lng": 86.08333
  },
  {
    "name": "Yichang",
    "lat": 30.71444,
    "lng": 111.28472
  },
  {
    "name": "Hwaseong-si",
    "lat": 37.20682,
    "lng": 126.8169
  },
  {
    "name": "Cuautitlan Izcalli",
    "lat": 19.64388,
    "lng": -99.21598
  },
  {
    "name": "Yinchuan",
    "lat": 38.46806,
    "lng": 106.27306
  },
  {
    "name": "Vereeniging",
    "lat": -26.67313,
    "lng": 27.92615
  },
  {
    "name": "Mixco",
    "lat": 14.63333,
    "lng": -90.60639
  },
  {
    "name": "Londrina",
    "lat": -23.31028,
    "lng": -51.16278
  },
  {
    "name": "Jiaojiang",
    "lat": 28.68028,
    "lng": 121.44278
  },
  {
    "name": "Matsudo",
    "lat": 35.78333,
    "lng": 139.9
  },
  {
    "name": "Juiz de Fora",
    "lat": -21.76417,
    "lng": -43.35028
  },
  {
    "name": "Nishinomiya-hama",
    "lat": 34.71562,
    "lng": 135.33199
  },
  {
    "name": "Tula",
    "lat": 54.19609,
    "lng": 37.61822
  },
  {
    "name": "Staten Island",
    "lat": 40.56233,
    "lng": -74.13986
  },
  {
    "name": "Kawaguchi",
    "lat": 35.80521,
    "lng": 139.71072
  },
  {
    "name": "Sacramento",
    "lat": 38.58157,
    "lng": -121.4944
  },
  {
    "name": "Zunyi",
    "lat": 27.68667,
    "lng": 106.90722
  },
  {
    "name": "Jiaxing",
    "lat": 30.7522,
    "lng": 120.75
  },
  {
    "name": "Belford Roxo",
    "lat": -22.76417,
    "lng": -43.39944
  },
  {
    "name": "Jammu",
    "lat": 32.73569,
    "lng": 74.86911
  },
  {
    "name": "Liaoyuan",
    "lat": 42.90361,
    "lng": 125.13583
  },
  {
    "name": "Kananga",
    "lat": -5.89624,
    "lng": 22.41659
  },
  {
    "name": "Bloemfontein",
    "lat": -29.12107,
    "lng": 26.214
  },
  {
    "name": "Xiangyang",
    "lat": 32.0422,
    "lng": 112.14479
  },
  {
    "name": "Long Beach",
    "lat": 33.76696,
    "lng": -118.18923
  },
  {
    "name": "Calabar",
    "lat": 4.9517,
    "lng": 8.322
  },
  {
    "name": "Dadukou",
    "lat": 26.5479,
    "lng": 101.70539
  },
  {
    "name": "Joinville",
    "lat": -26.30444,
    "lng": -48.84556
  },
  {
    "name": "Hamah",
    "lat": 35.13179,
    "lng": 36.75783
  },
  {
    "name": "Antwerpen",
    "lat": 51.21989,
    "lng": 4.40346
  },
  {
    "name": "Kansas City",
    "lat": 39.09973,
    "lng": -94.57857
  },
  {
    "name": "Kanazawa-shi",
    "lat": 36.59445,
    "lng": 136.62556
  },
  {
    "name": "Karabaglar",
    "lat": 38.37396,
    "lng": 27.1352
  },
  {
    "name": "Zamboanga",
    "lat": 6.91028,
    "lng": 122.07389
  },
  {
    "name": "Kirov",
    "lat": 58.59665,
    "lng": 49.66007
  },
  {
    "name": "Ujjain",
    "lat": 23.18239,
    "lng": 75.77643
  },
  {
    "name": "Kota Kinabalu",
    "lat": 5.9749,
    "lng": 116.0724
  },
  {
    "name": "Victoria de Durango",
    "lat": 24.02032,
    "lng": -104.65756
  },
  {
    "name": "Niteroi",
    "lat": -22.88333,
    "lng": -43.10361
  },
  {
    "name": "Hengshui",
    "lat": 37.73222,
    "lng": 115.70111
  },
  {
    "name": "Tabuk",
    "lat": 28.3998,
    "lng": 36.57151
  },
  {
    "name": "Pontianak",
    "lat": -0.03109,
    "lng": 109.32199
  },
  {
    "name": "Namp'o",
    "lat": 38.7375,
    "lng": 125.40778
  },
  {
    "name": "Bacolod City",
    "lat": 10.66667,
    "lng": 122.95
  },
  {
    "name": "Sao Joao de Meriti",
    "lat": -22.80389,
    "lng": -43.37222
  },
  {
    "name": "Mansilingan",
    "lat": 10.63111,
    "lng": 122.97889
  },
  {
    "name": "Ramgundam",
    "lat": 18.80084,
    "lng": 79.45206
  },
  {
    "name": "Luhansk",
    "lat": 48.56705,
    "lng": 39.31706
  },
  {
    "name": "Manado",
    "lat": 1.48218,
    "lng": 124.84892
  },
  {
    "name": "Karagandy",
    "lat": 49.83333,
    "lng": 73.1658
  },
  {
    "name": "Jining",
    "lat": 35.405,
    "lng": 116.58139
  },
  {
    "name": "Constantine",
    "lat": 36.365,
    "lng": 6.61472
  },
  {
    "name": "Wenshan City",
    "lat": 23.36306,
    "lng": 104.25047
  },
  {
    "name": "Utsunomiya-shi",
    "lat": 36.56583,
    "lng": 139.88361
  },
  {
    "name": "Heroica Matamoros",
    "lat": 25.87972,
    "lng": -97.50417
  },
  {
    "name": "Sanliurfa",
    "lat": 37.16708,
    "lng": 38.79392
  },
  {
    "name": "Chengde",
    "lat": 40.9725,
    "lng": 117.93611
  },
  {
    "name": "Xuchang",
    "lat": 34.01667,
    "lng": 113.81667
  },
  {
    "name": "Oita",
    "lat": 33.23806,
    "lng": 131.6125
  },
  {
    "name": "Venustiano Carranza",
    "lat": 19.44286,
    "lng": -99.09724
  },
  {
    "name": "San Juan",
    "lat": -31.5375,
    "lng": -68.53639
  },
  {
    "name": "Cheboksary",
    "lat": 56.13222,
    "lng": 47.25194
  },
  {
    "name": "Boksburg",
    "lat": -26.21197,
    "lng": 28.25958
  },
  {
    "name": "Cagayan de Oro",
    "lat": 8.48222,
    "lng": 124.64722
  },
  {
    "name": "Matsuyama",
    "lat": 33.83916,
    "lng": 132.76574
  },
  {
    "name": "San Nicolas de los Garza",
    "lat": 25.74167,
    "lng": -100.30222
  },
  {
    "name": "Amagasaki",
    "lat": 34.71667,
    "lng": 135.41667
  },
  {
    "name": "Carrefour",
    "lat": 18.54114,
    "lng": -72.39922
  },
  {
    "name": "Shyamnagar",
    "lat": 22.83333,
    "lng": 88.36667
  },
  {
    "name": "Dasmarinas",
    "lat": 14.32944,
    "lng": 120.93667
  },
  {
    "name": "Malatya",
    "lat": 38.35018,
    "lng": 38.31667
  },
  {
    "name": "Nangi",
    "lat": 22.50833,
    "lng": 88.21528
  },
  {
    "name": "Pereira",
    "lat": 4.81333,
    "lng": -75.69611
  },
  {
    "name": "Kozhikode",
    "lat": 11.24802,
    "lng": 75.7804
  },
  {
    "name": "Mesa",
    "lat": 33.41253,
    "lng": -111.83189
  },
  {
    "name": "Mawlamyine",
    "lat": 16.49051,
    "lng": 97.62825
  },
  {
    "name": "Iquitos",
    "lat": -3.74912,
    "lng": -73.25383
  },
  {
    "name": "Kurashiki",
    "lat": 34.58333,
    "lng": 133.76667
  },
  {
    "name": "Sultangazi",
    "lat": 41.10652,
    "lng": 28.86847
  },
  {
    "name": "Garoua",
    "lat": 9.30143,
    "lng": 13.39771
  },
  {
    "name": "Mwanza",
    "lat": -2.51667,
    "lng": 32.9
  },
  {
    "name": "Uyo",
    "lat": 5.05127,
    "lng": 7.9335
  },
  {
    "name": "Bei'an",
    "lat": 48.26667,
    "lng": 126.6
  },
  {
    "name": "Tirunelveli",
    "lat": 8.72518,
    "lng": 77.68452
  },
  {
    "name": "Kousseri",
    "lat": 12.07689,
    "lng": 15.03063
  },
  {
    "name": "Malegaon",
    "lat": 20.5537,
    "lng": 74.52881
  },
  {
    "name": "Kaliningrad",
    "lat": 54.70649,
    "lng": 20.51095
  },
  {
    "name": "Karbala",
    "lat": 32.61603,
    "lng": 44.02488
  },
  {
    "name": "Ananindeua",
    "lat": -1.36556,
    "lng": -48.37222
  },
  {
    "name": "Balikpapan",
    "lat": -1.26753,
    "lng": 116.82887
  },
  {
    "name": "Brampton",
    "lat": 43.68341,
    "lng": -79.76633
  },
  {
    "name": "Namangan",
    "lat": 40.9983,
    "lng": 71.67257
  },
  {
    "name": "Katsina",
    "lat": 12.99082,
    "lng": 7.60177
  },
  {
    "name": "Welkom",
    "lat": -27.97742,
    "lng": 26.73506
  },
  {
    "name": "Santa Marta",
    "lat": 11.24079,
    "lng": -74.19904
  },
  {
    "name": "Al Mahallah al Kubra",
    "lat": 30.97063,
    "lng": 31.1669
  },
  {
    "name": "Jalgaon",
    "lat": 21.01009,
    "lng": 75.56843
  },
  {
    "name": "Yokosuka",
    "lat": 35.28361,
    "lng": 139.66722
  },
  {
    "name": "Akola",
    "lat": 20.70957,
    "lng": 76.9981
  },
  {
    "name": "Belgaum",
    "lat": 15.85212,
    "lng": 74.50447
  },
  {
    "name": "East Jerusalem",
    "lat": 31.78336,
    "lng": 35.23388
  },
  {
    "name": "Luqiao",
    "lat": 28.58023,
    "lng": 121.37491
  },
  {
    "name": "Bryansk",
    "lat": 53.25209,
    "lng": 34.37167
  },
  {
    "name": "Maltepe",
    "lat": 40.93567,
    "lng": 29.15507
  },
  {
    "name": "Azcapotzalco",
    "lat": 19.48698,
    "lng": -99.18594
  },
  {
    "name": "Xalapa de Enriquez",
    "lat": 19.53124,
    "lng": -96.91589
  },
  {
    "name": "Chaozhou",
    "lat": 23.65396,
    "lng": 116.62262
  },
  {
    "name": "Ado-Ekiti",
    "lat": 7.62329,
    "lng": 5.22087
  },
  {
    "name": "Gaya",
    "lat": 24.79686,
    "lng": 85.00385
  },
  {
    "name": "Udaipur",
    "lat": 24.57117,
    "lng": 73.69183
  },
  {
    "name": "Likasi",
    "lat": -10.98303,
    "lng": 26.7384
  },
  {
    "name": "Luxor",
    "lat": 25.69893,
    "lng": 32.6421
  },
  {
    "name": "Ibague",
    "lat": 4.43889,
    "lng": -75.23222
  },
  {
    "name": "Shaoxing",
    "lat": 30.00237,
    "lng": 120.57864
  },
  {
    "name": "Ivanovo",
    "lat": 56.99719,
    "lng": 40.97139
  },
  {
    "name": "Erzurum",
    "lat": 39.90861,
    "lng": 41.27694
  },
  {
    "name": "Akure",
    "lat": 7.25256,
    "lng": 5.19312
  },
  {
    "name": "Asyut",
    "lat": 27.18096,
    "lng": 31.18368
  },
  {
    "name": "Jambi City",
    "lat": -1.6,
    "lng": 103.61667
  },
  {
    "name": "Al Mansurah",
    "lat": 31.03637,
    "lng": 31.38069
  },
  {
    "name": "Atlanta",
    "lat": 33.749,
    "lng": -84.38798
  },
  {
    "name": "Korba",
    "lat": 22.3458,
    "lng": 82.69633
  },
  {
    "name": "Bokaro",
    "lat": 23.78732,
    "lng": 85.95622
  },
  {
    "name": "Kolwezi",
    "lat": -10.71484,
    "lng": 25.46674
  },
  {
    "name": "Auckland",
    "lat": -36.86667,
    "lng": 174.76667
  },
  {
    "name": "Sukkur",
    "lat": 27.70516,
    "lng": 68.85738
  },
  {
    "name": "Mangalore",
    "lat": 12.91723,
    "lng": 74.85603
  },
  {
    "name": "Luohe",
    "lat": 33.57167,
    "lng": 114.03528
  },
  {
    "name": "Colorado Springs",
    "lat": 38.83388,
    "lng": -104.82136
  },
  {
    "name": "Shymkent",
    "lat": 42.3,
    "lng": 69.6
  },
  {
    "name": "Yangquan",
    "lat": 37.8575,
    "lng": 113.56333
  },
  {
    "name": "Magnitogorsk",
    "lat": 53.41861,
    "lng": 59.04722
  },
  {
    "name": "Jhansi",
    "lat": 25.45446,
    "lng": 78.58221
  },
  {
    "name": "Florianopolis",
    "lat": -27.59667,
    "lng": -48.54917
  },
  {
    "name": "Wandsbek",
    "lat": 53.56667,
    "lng": 10.1
  },
  {
    "name": "Santos",
    "lat": -23.96083,
    "lng": -46.33361
  },
  {
    "name": "Maturin",
    "lat": 9.74569,
    "lng": -63.18323
  },
  {
    "name": "Ardabil",
    "lat": 38.2498,
    "lng": 48.2933
  },
  {
    "name": "Nagasaki-shi",
    "lat": 32.74472,
    "lng": 129.87361
  },
  {
    "name": "Chaoyang",
    "lat": 41.57028,
    "lng": 120.45861
  },
  {
    "name": "Gaza",
    "lat": 31.5,
    "lng": 34.46667
  },
  {
    "name": "Kursk",
    "lat": 51.73733,
    "lng": 36.18735
  },
  {
    "name": "Omaha",
    "lat": 41.25861,
    "lng": -95.93779
  },
  {
    "name": "Al Ain",
    "lat": 24.19167,
    "lng": 55.76056
  },
  {
    "name": "Jeju-si",
    "lat": 33.50972,
    "lng": 126.52194
  },
  {
    "name": "Panama",
    "lat": 8.9936,
    "lng": -79.51973
  },
  {
    "name": "Bien Hoa",
    "lat": 10.94469,
    "lng": 106.82432
  },
  {
    "name": "Villa Nueva",
    "lat": 14.52694,
    "lng": -90.5875
  },
  {
    "name": "Ribeirao das Neves",
    "lat": -19.76694,
    "lng": -44.08667
  },
  {
    "name": "Hirakata",
    "lat": 34.81352,
    "lng": 135.64914
  },
  {
    "name": "Denpasar",
    "lat": -8.65,
    "lng": 115.21667
  },
  {
    "name": "Oujda",
    "lat": 34.68053,
    "lng": -1.90764
  },
  {
    "name": "Tanda",
    "lat": 30.78847,
    "lng": 31.00192
  },
  {
    "name": "Xochimilco",
    "lat": 19.25785,
    "lng": -99.10513
  },
  {
    "name": "Nellore",
    "lat": 14.45363,
    "lng": 79.98674
  },
  {
    "name": "Hsinchu",
    "lat": 24.80361,
    "lng": 120.96861
  },
  {
    "name": "Raleigh",
    "lat": 35.7721,
    "lng": -78.63861
  },
  {
    "name": "Jixi",
    "lat": 45.30109,
    "lng": 130.95718
  },
  {
    "name": "Zanzibar",
    "lat": -6.16394,
    "lng": 39.19793
  },
  {
    "name": "Taoyuan City",
    "lat": 24.99368,
    "lng": 121.29696
  },
  {
    "name": "Tonala",
    "lat": 20.62445,
    "lng": -103.23423
  },
  {
    "name": "Kassala",
    "lat": 15.45099,
    "lng": 36.39998
  },
  {
    "name": "Kitwe",
    "lat": -12.80243,
    "lng": 28.21323
  },
  {
    "name": "New York",
    "lat": 40.7127837,
    "lng": -74.0059413
  },
  {
    "name": "San Antonio",
    "lat": 29.4241219,
    "lng": -98.49362819999999
  },
  {
    "name": "Jacksonville (Florida)",
    "lat": 30.3321838,
    "lng": -81.65565099999999
  },
  {
    "name": "Columbus (Ohio)",
    "lat": 39.9611755,
    "lng": -82.99879419999999
  },
  {
    "name": "Washington",
    "lat": 38.9071923,
    "lng": -77.0368707
  },
  {
    "name": "Nashville-Davidson",
    "lat": 36.1626638,
    "lng": -86.7816016
  },
  {
    "name": "Louisville/Jefferson County",
    "lat": 38.2526647,
    "lng": -85.7584557
  },
  {
    "name": "Portland (Oregon)",
    "lat": 45.5230622,
    "lng": -122.6764816
  },
  {
    "name": "Kansas City (Missouri)",
    "lat": 39.0997265,
    "lng": -94.5785667
  },
  {
    "name": "Virginia Beach",
    "lat": 36.8529263,
    "lng": -75.97798499999999
  },
  {
    "name": "Miami",
    "lat": 25.7616798,
    "lng": -80.1917902
  },
  {
    "name": "Oakland",
    "lat": 37.8043637,
    "lng": -122.2711137
  },
  {
    "name": "Minneapolis",
    "lat": 44.977753,
    "lng": -93.2650108
  },
  {
    "name": "Tulsa",
    "lat": 36.1539816,
    "lng": -95.99277500000001
  },
  {
    "name": "Cleveland (Ohio)",
    "lat": 41.49932,
    "lng": -81.6943605
  },
  {
    "name": "Wichita",
    "lat": 37.688889,
    "lng": -97.336111
  },
  {
    "name": "Arlington",
    "lat": 32.735687,
    "lng": -97.10806559999999
  },
  {
    "name": "New Orleans",
    "lat": 29.95106579999999,
    "lng": -90.0715323
  },
  {
    "name": "Bakersfield",
    "lat": 35.3732921,
    "lng": -119.0187125
  },
  {
    "name": "Tampa",
    "lat": 27.950575,
    "lng": -82.4571776
  },
  {
    "name": "Honolulu",
    "lat": 21.3069444,
    "lng": -157.8583333
  },
  {
    "name": "Aurora (Colorado)",
    "lat": 39.7294319,
    "lng": -104.8319195
  },
  {
    "name": "Anaheim",
    "lat": 33.8352932,
    "lng": -117.9145036
  },
  {
    "name": "Santa Ana",
    "lat": 33.7455731,
    "lng": -117.8678338
  },
  {
    "name": "St. Louis",
    "lat": 38.6270025,
    "lng": -90.19940419999999
  },
  {
    "name": "Riverside",
    "lat": 33.9533487,
    "lng": -117.3961564
  },
  {
    "name": "Corpus Christi",
    "lat": 27.8005828,
    "lng": -97.39638099999999
  },
  {
    "name": "Lexington-Fayette",
    "lat": 38.0405837,
    "lng": -84.5037164
  },
  {
    "name": "Pittsburgh",
    "lat": 40.44062479999999,
    "lng": -79.9958864
  },
  {
    "name": "Anchorage",
    "lat": 61.2180556,
    "lng": -149.9002778
  },
  {
    "name": "Stockton",
    "lat": 37.9577016,
    "lng": -121.2907796
  },
  {
    "name": "Cincinnati",
    "lat": 39.1031182,
    "lng": -84.5120196
  },
  {
    "name": "St. Paul",
    "lat": 44.9537029,
    "lng": -93.0899578
  },
  {
    "name": "Toledo",
    "lat": 41.6639383,
    "lng": -83.55521200000001
  },
  {
    "name": "Greensboro",
    "lat": 36.0726354,
    "lng": -79.7919754
  },
  {
    "name": "Newark (New Jersey)",
    "lat": 40.735657,
    "lng": -74.1723667
  },
  {
    "name": "Plano",
    "lat": 33.0198431,
    "lng": -96.6988856
  },
  {
    "name": "Henderson",
    "lat": 36.0395247,
    "lng": -114.9817213
  },
  {
    "name": "Lincoln (Nebraska)",
    "lat": 40.8257625,
    "lng": -96.6851982
  },
  {
    "name": "Buffalo",
    "lat": 42.88644679999999,
    "lng": -78.8783689
  },
  {
    "name": "Jersey City",
    "lat": 40.72815749999999,
    "lng": -74.0776417
  },
  {
    "name": "Chula Vista",
    "lat": 32.6400541,
    "lng": -117.0841955
  },
  {
    "name": "Fort Wayne",
    "lat": 41.079273,
    "lng": -85.1393513
  },
  {
    "name": "Orlando",
    "lat": 28.5383355,
    "lng": -81.3792365
  },
  {
    "name": "St. Petersburg",
    "lat": 27.773056,
    "lng": -82.64
  },
  {
    "name": "Chandler",
    "lat": 33.3061605,
    "lng": -111.8412502
  },
  {
    "name": "Laredo",
    "lat": 27.5305671,
    "lng": -99.48032409999999
  },
  {
    "name": "Norfolk",
    "lat": 36.8507689,
    "lng": -76.28587259999999
  },
  {
    "name": "Durham",
    "lat": 35.9940329,
    "lng": -78.898619
  },
  {
    "name": "Madison (Wisconsin)",
    "lat": 43.0730517,
    "lng": -89.4012302
  },
  {
    "name": "Lubbock",
    "lat": 33.5778631,
    "lng": -101.8551665
  },
  {
    "name": "Irvine",
    "lat": 33.6839473,
    "lng": -117.7946942
  },
  {
    "name": "Winston-Salem",
    "lat": 36.09985959999999,
    "lng": -80.244216
  },
  {
    "name": "Glendale (Arizona)",
    "lat": 33.5386523,
    "lng": -112.1859866
  },
  {
    "name": "Garland",
    "lat": 32.912624,
    "lng": -96.63888329999999
  },
  {
    "name": "Hialeah",
    "lat": 25.8575963,
    "lng": -80.2781057
  },
  {
    "name": "Reno",
    "lat": 39.5296329,
    "lng": -119.8138027
  },
  {
    "name": "Chesapeake",
    "lat": 36.7682088,
    "lng": -76.2874927
  },
  {
    "name": "Gilbert",
    "lat": 33.3528264,
    "lng": -111.789027
  },
  {
    "name": "Baton Rouge",
    "lat": 30.4582829,
    "lng": -91.1403196
  },
  {
    "name": "Irving",
    "lat": 32.8140177,
    "lng": -96.9488945
  },
  {
    "name": "Scottsdale",
    "lat": 33.4941704,
    "lng": -111.9260519
  },
  {
    "name": "North Las Vegas",
    "lat": 36.1988592,
    "lng": -115.1175013
  },
  {
    "name": "Fremont",
    "lat": 37.5482697,
    "lng": -121.9885719
  },
  {
    "name": "Boise City",
    "lat": 43.6187102,
    "lng": -116.2146068
  },
  {
    "name": "Richmond (Virginia)",
    "lat": 37.5407246,
    "lng": -77.4360481
  },
  {
    "name": "San Bernardino",
    "lat": 34.1083449,
    "lng": -117.2897652
  },
  {
    "name": "Spokane",
    "lat": 47.6587802,
    "lng": -117.4260466
  },
  {
    "name": "Rochester (New York)",
    "lat": 43.16103,
    "lng": -77.6109219
  },
  {
    "name": "Des Moines",
    "lat": 41.6005448,
    "lng": -93.6091064
  },
  {
    "name": "Modesto",
    "lat": 37.63909719999999,
    "lng": -120.9968782
  },
  {
    "name": "Fayetteville (North Carolina)",
    "lat": 35.0526641,
    "lng": -78.87835849999999
  },
  {
    "name": "Tacoma",
    "lat": 47.2528768,
    "lng": -122.4442906
  },
  {
    "name": "Oxnard",
    "lat": 34.1975048,
    "lng": -119.1770516
  },
  {
    "name": "Fontana",
    "lat": 34.0922335,
    "lng": -117.435048
  },
  {
    "name": "Columbus (Georgia)",
    "lat": 32.4609764,
    "lng": -84.9877094
  },
  {
    "name": "Montgomery",
    "lat": 32.3668052,
    "lng": -86.2999689
  },
  {
    "name": "Moreno Valley",
    "lat": 33.9424658,
    "lng": -117.2296717
  },
  {
    "name": "Shreveport",
    "lat": 32.5251516,
    "lng": -93.7501789
  },
  {
    "name": "Aurora (Illinois)",
    "lat": 41.7605849,
    "lng": -88.32007150000001
  },
  {
    "name": "Yonkers",
    "lat": 40.9312099,
    "lng": -73.89874689999999
  },
  {
    "name": "Akron",
    "lat": 41.0814447,
    "lng": -81.51900529999999
  },
  {
    "name": "Huntington Beach",
    "lat": 33.660297,
    "lng": -117.9992265
  },
  {
    "name": "Little Rock",
    "lat": 34.7464809,
    "lng": -92.28959479999999
  },
  {
    "name": "Augusta-Richmond County",
    "lat": 33.4734978,
    "lng": -82.0105148
  },
  {
    "name": "Amarillo",
    "lat": 35.2219971,
    "lng": -101.8312969
  },
  {
    "name": "Glendale (California)",
    "lat": 34.1425078,
    "lng": -118.255075
  },
  {
    "name": "Mobile",
    "lat": 30.6953657,
    "lng": -88.0398912
  },
  {
    "name": "Grand Rapids",
    "lat": 42.9633599,
    "lng": -85.6680863
  },
  {
    "name": "Salt Lake City",
    "lat": 40.7607793,
    "lng": -111.8910474
  },
  {
    "name": "Tallahassee",
    "lat": 30.4382559,
    "lng": -84.28073289999999
  },
  {
    "name": "Huntsville (Alabama)",
    "lat": 34.7303688,
    "lng": -86.5861037
  },
  {
    "name": "Grand Prairie",
    "lat": 32.7459645,
    "lng": -96.99778459999999
  },
  {
    "name": "Knoxville",
    "lat": 35.9606384,
    "lng": -83.9207392
  },
  {
    "name": "Worcester",
    "lat": 42.2625932,
    "lng": -71.8022934
  },
  {
    "name": "Newport News",
    "lat": 37.0870821,
    "lng": -76.4730122
  },
  {
    "name": "Brownsville",
    "lat": 25.9017472,
    "lng": -97.4974838
  },
  {
    "name": "Overland Park",
    "lat": 38.9822282,
    "lng": -94.6707917
  },
  {
    "name": "Santa Clarita",
    "lat": 34.3916641,
    "lng": -118.542586
  },
  {
    "name": "Providence",
    "lat": 41.8239891,
    "lng": -71.4128343
  },
  {
    "name": "Garden Grove",
    "lat": 33.7739053,
    "lng": -117.9414477
  },
  {
    "name": "Chattanooga",
    "lat": 35.0456297,
    "lng": -85.3096801
  },
  {
    "name": "Oceanside",
    "lat": 33.1958696,
    "lng": -117.3794834
  },
  {
    "name": "Jackson (Mississippi)",
    "lat": 32.2987573,
    "lng": -90.1848103
  },
  {
    "name": "Fort Lauderdale",
    "lat": 26.1224386,
    "lng": -80.13731740000001
  },
  {
    "name": "Santa Rosa",
    "lat": 38.440429,
    "lng": -122.7140548
  },
  {
    "name": "Rancho Cucamonga",
    "lat": 34.10639889999999,
    "lng": -117.5931084
  },
  {
    "name": "Port St. Lucie",
    "lat": 27.2730492,
    "lng": -80.3582261
  },
  {
    "name": "Tempe",
    "lat": 33.4255104,
    "lng": -111.9400054
  },
  {
    "name": "Ontario",
    "lat": 34.0633443,
    "lng": -117.6508876
  },
  {
    "name": "Cape Coral",
    "lat": 26.5628537,
    "lng": -81.9495331
  },
  {
    "name": "Sioux Falls",
    "lat": 43.5445959,
    "lng": -96.73110340000001
  },
  {
    "name": "Springfield (Missouri)",
    "lat": 37.2089572,
    "lng": -93.29229889999999
  },
  {
    "name": "Peoria (Arizona)",
    "lat": 33.5805955,
    "lng": -112.2373779
  },
  {
    "name": "Pembroke Pines",
    "lat": 26.007765,
    "lng": -80.2962555
  },
  {
    "name": "Elk Grove",
    "lat": 38.4087993,
    "lng": -121.3716178
  },
  {
    "name": "Salem (Oregon)",
    "lat": 44.9428975,
    "lng": -123.0350963
  },
  {
    "name": "Lancaster (California)",
    "lat": 34.6867846,
    "lng": -118.1541632
  },
  {
    "name": "Corona",
    "lat": 33.8752935,
    "lng": -117.5664384
  },
  {
    "name": "Eugene",
    "lat": 44.0520691,
    "lng": -123.0867536
  },
  {
    "name": "Palmdale",
    "lat": 34.5794343,
    "lng": -118.1164613
  },
  {
    "name": "Salinas",
    "lat": 36.6777372,
    "lng": -121.6555013
  },
  {
    "name": "Springfield (Massachusetts)",
    "lat": 42.1014831,
    "lng": -72.589811
  },
  {
    "name": "Pasadena (Texas)",
    "lat": 29.6910625,
    "lng": -95.2091006
  },
  {
    "name": "Fort Collins",
    "lat": 40.5852602,
    "lng": -105.084423
  },
  {
    "name": "Hayward",
    "lat": 37.6688205,
    "lng": -122.0807964
  },
  {
    "name": "Pomona",
    "lat": 34.055103,
    "lng": -117.7499909
  },
  {
    "name": "Cary",
    "lat": 35.79154,
    "lng": -78.7811169
  },
  {
    "name": "Rockford",
    "lat": 42.2711311,
    "lng": -89.0939952
  },
  {
    "name": "Alexandria (Virginia)",
    "lat": 38.8048355,
    "lng": -77.0469214
  },
  {
    "name": "Escondido",
    "lat": 33.1192068,
    "lng": -117.086421
  },
  {
    "name": "McKinney",
    "lat": 33.1972465,
    "lng": -96.6397822
  },
  {
    "name": "Kansas City (Kansas)",
    "lat": 39.114053,
    "lng": -94.6274636
  },
  {
    "name": "Joliet",
    "lat": 41.525031,
    "lng": -88.0817251
  },
  {
    "name": "Sunnyvale",
    "lat": 37.36883,
    "lng": -122.0363496
  },
  {
    "name": "Torrance",
    "lat": 33.8358492,
    "lng": -118.3406288
  },
  {
    "name": "Bridgeport",
    "lat": 41.1865478,
    "lng": -73.19517669999999
  },
  {
    "name": "Lakewood (Colorado)",
    "lat": 39.7047095,
    "lng": -105.0813734
  },
  {
    "name": "Hollywood",
    "lat": 26.0112014,
    "lng": -80.1494901
  },
  {
    "name": "Paterson",
    "lat": 40.9167654,
    "lng": -74.17181099999999
  },
  {
    "name": "Naperville",
    "lat": 41.7508391,
    "lng": -88.1535352
  },
  {
    "name": "Syracuse",
    "lat": 43.0481221,
    "lng": -76.14742439999999
  },
  {
    "name": "Mesquite",
    "lat": 32.76679550000001,
    "lng": -96.5991593
  },
  {
    "name": "Dayton",
    "lat": 39.7589478,
    "lng": -84.1916069
  },
  {
    "name": "Savannah",
    "lat": 32.0835407,
    "lng": -81.09983419999999
  },
  {
    "name": "Clarksville",
    "lat": 36.5297706,
    "lng": -87.3594528
  },
  {
    "name": "Orange",
    "lat": 33.7877944,
    "lng": -117.8531119
  },
  {
    "name": "Pasadena (California)",
    "lat": 34.1477849,
    "lng": -118.1445155
  },
  {
    "name": "Fullerton",
    "lat": 33.8703596,
    "lng": -117.9242966
  },
  {
    "name": "Killeen",
    "lat": 31.1171194,
    "lng": -97.72779589999999
  },
  {
    "name": "Frisco",
    "lat": 33.1506744,
    "lng": -96.82361159999999
  },
  {
    "name": "Hampton",
    "lat": 37.0298687,
    "lng": -76.34522179999999
  },
  {
    "name": "McAllen",
    "lat": 26.2034071,
    "lng": -98.23001239999999
  },
  {
    "name": "Warren (Michigan)",
    "lat": 42.5144566,
    "lng": -83.01465259999999
  },
  {
    "name": "Bellevue (Washington)",
    "lat": 47.610377,
    "lng": -122.2006786
  },
  {
    "name": "West Valley City",
    "lat": 40.6916132,
    "lng": -112.0010501
  },
  {
    "name": "Columbia (South Carolina)",
    "lat": 34.0007104,
    "lng": -81.0348144
  },
  {
    "name": "Olathe",
    "lat": 38.8813958,
    "lng": -94.81912849999999
  },
  {
    "name": "Sterling Heights",
    "lat": 42.5803122,
    "lng": -83.0302033
  },
  {
    "name": "New Haven",
    "lat": 41.308274,
    "lng": -72.9278835
  },
  {
    "name": "Miramar",
    "lat": 25.9860762,
    "lng": -80.30356019999999
  },
  {
    "name": "Waco",
    "lat": 31.549333,
    "lng": -97.1466695
  },
  {
    "name": "Thousand Oaks",
    "lat": 34.1705609,
    "lng": -118.8375937
  },
  {
    "name": "Cedar Rapids",
    "lat": 41.9778795,
    "lng": -91.6656232
  },
  {
    "name": "Charleston (South Carolina)",
    "lat": 32.7764749,
    "lng": -79.93105120000001
  },
  {
    "name": "Visalia",
    "lat": 36.3302284,
    "lng": -119.2920585
  },
  {
    "name": "Topeka",
    "lat": 39.0558235,
    "lng": -95.68901849999999
  },
  {
    "name": "Elizabeth",
    "lat": 40.6639916,
    "lng": -74.2107006
  },
  {
    "name": "Gainesville",
    "lat": 29.6516344,
    "lng": -82.32482619999999
  },
  {
    "name": "Thornton",
    "lat": 39.8680412,
    "lng": -104.9719243
  },
  {
    "name": "Roseville (California)",
    "lat": 38.7521235,
    "lng": -121.2880059
  },
  {
    "name": "Carrollton",
    "lat": 32.9756415,
    "lng": -96.8899636
  },
  {
    "name": "Coral Springs",
    "lat": 26.271192,
    "lng": -80.2706044
  },
  {
    "name": "Stamford",
    "lat": 41.0534302,
    "lng": -73.5387341
  },
  {
    "name": "Simi Valley",
    "lat": 34.2694474,
    "lng": -118.781482
  },
  {
    "name": "Concord (California)",
    "lat": 37.9779776,
    "lng": -122.0310733
  },
  {
    "name": "Hartford",
    "lat": 41.76371109999999,
    "lng": -72.6850932
  },
  {
    "name": "Kent",
    "lat": 47.3809335,
    "lng": -122.2348431
  },
  {
    "name": "Lafayette (Louisiana)",
    "lat": 30.2240897,
    "lng": -92.0198427
  },
  {
    "name": "Midland (Texas)",
    "lat": 31.9973456,
    "lng": -102.0779146
  },
  {
    "name": "Surprise",
    "lat": 33.6292337,
    "lng": -112.3679279
  },
  {
    "name": "Denton",
    "lat": 33.2148412,
    "lng": -97.13306829999999
  },
  {
    "name": "Victorville",
    "lat": 34.5362184,
    "lng": -117.2927641
  },
  {
    "name": "Evansville",
    "lat": 37.9715592,
    "lng": -87.5710898
  },
  {
    "name": "Santa Clara",
    "lat": 37.3541079,
    "lng": -121.9552356
  },
  {
    "name": "Abilene",
    "lat": 32.4487364,
    "lng": -99.73314390000002
  },
  {
    "name": "Athens-Clarke County",
    "lat": 33.9519347,
    "lng": -83.357567
  },
  {
    "name": "Vallejo",
    "lat": 38.1040864,
    "lng": -122.2566367
  },
  {
    "name": "Allentown",
    "lat": 40.6084305,
    "lng": -75.4901833
  },
  {
    "name": "Norman",
    "lat": 35.2225668,
    "lng": -97.4394777
  },
  {
    "name": "Beaumont (Texas)",
    "lat": 30.080174,
    "lng": -94.1265562
  },
  {
    "name": "Independence",
    "lat": 39.0911161,
    "lng": -94.41550679999999
  },
  {
    "name": "Murfreesboro",
    "lat": 35.8456213,
    "lng": -86.39027
  },
  {
    "name": "Ann Arbor",
    "lat": 42.2808256,
    "lng": -83.7430378
  },
  {
    "name": "Springfield (Illinois)",
    "lat": 39.78172130000001,
    "lng": -89.6501481
  },
  {
    "name": "Berkeley",
    "lat": 37.8715926,
    "lng": -122.272747
  },
  {
    "name": "Peoria (Illinois)",
    "lat": 40.6936488,
    "lng": -89.5889864
  },
  {
    "name": "Provo",
    "lat": 40.2338438,
    "lng": -111.6585337
  },
  {
    "name": "El Monte",
    "lat": 34.0686206,
    "lng": -118.0275667
  },
  {
    "name": "Columbia (Missouri)",
    "lat": 38.9517053,
    "lng": -92.3340724
  },
  {
    "name": "Lansing",
    "lat": 42.732535,
    "lng": -84.5555347
  },
  {
    "name": "Fargo",
    "lat": 46.8771863,
    "lng": -96.7898034
  },